Country,City,AQI_Value,AQI_Category,CO_AQI_Value,CO_AQI_Category,Ozone_AQI_Value,Ozone_AQI_Category,NO2_AQI_Value,NO2_AQI_Category,PM2_5_AQI_Value,PM2_5_AQI_Category,Lat,Lng,PM10,PM10_Category
Afghanistan,Zaranj,133,Unhealthy for Sensitive Groups,1,Good,46,Good,0,Good,133,Very Poor,30.96,61.86,140,Moderate
Afghanistan,Taywarah,62,Moderate,0,Good,39,Good,0,Good,62,Moderate,33.51,64.42,140,Moderate
Afghanistan,Kabul,64,Moderate,0,Good,41,Good,0,Good,64,Moderate,34.5253,69.1783,41,Good
Albania,Tirana,73,Moderate,1,Good,45,Good,1,Good,73,Moderate,41.3289,19.8178,20,Good
Albania,Peshkopi,115,Unhealthy for Sensitive Groups,1,Good,39,Good,0,Good,115,Poor,41.6833,20.4281,20,Good
Albania,Fier,52,Moderate,1,Good,40,Good,2,Good,52,Satisfactory,40.725,19.5572,20,Good
Albania,Librazhd,67,Moderate,1,Good,42,Good,0,Good,67,Moderate,41.1833,20.3167,20,Good
Albania,Berat,91,Moderate,1,Good,47,Good,0,Good,91,Poor,40.7,19.95,20,Good
Albania,Burrel,113,Unhealthy for Sensitive Groups,1,Good,43,Good,0,Good,113,Poor,41.6083,20.0111,20,Good
Albania,Gramsh,68,Moderate,1,Good,39,Good,1,Good,68,Moderate,40.8667,20.1833,20,Good
Albania,Pogradec,44,Good,1,Good,44,Good,0,Good,39,Satisfactory,40.9,20.65,20,Good
Albania,Elbasan,71,Moderate,1,Good,44,Good,1,Good,71,Moderate,41.1111,20.0806,20,Good
Algeria,Algiers,154,Unhealthy,10,Good,33,Good,69,Unhealthy,154,Very Poor,36.7539,3.0589,43,Good
Algeria,Adrar,106,Unhealthy for Sensitive Groups,0,Good,45,Good,0,Good,106,Poor,27.8742,-0.2939,22,Good
Algeria,Timizart,91,Moderate,3,Good,28,Good,18,Good,91,Poor,36.8,4.2667,43,Good
Algeria,Constantine,74,Moderate,3,Good,34,Good,16,Good,74,Moderate,36.365,6.6147,43,Good
Andorra,Encamp,32,Good,1,Good,32,Good,0,Good,24,Good,42.5361,1.5828,30,Good
Angola,Ondjiva,20,Good,0,Good,20,Good,0,Good,12,Good,-17.0667,15.7333,45,Good
Angola,Luanda,164,Unhealthy,8,Good,7,Good,11,Good,164,Very Poor,-8.8383,13.2344,85,Satisfactory
Angola,Camabatela,198,Unhealthy,12,Good,29,Good,8,Good,198,Very Poor,-8.1833,15.3667,33,Good
Angola,Luau,54,Moderate,1,Good,20,Good,0,Good,54,Satisfactory,-10.7044,22.2283,33,Good
Angola,Menongue,32,Good,0,Good,32,Good,0,Good,8,Good,-14.6556,17.6842,40,Good
Angola,Catumbela,53,Moderate,1,Good,20,Good,0,Good,53,Satisfactory,-12.4167,13.5333,45,Good
Angola,Longonjo,28,Good,0,Good,28,Good,0,Good,16,Good,-12.9067,15.1864,40,Good
Angola,Catabola,27,Good,1,Good,23,Good,0,Good,27,Good,-12.1167,17.3,40,Good
Angola,Cabinda,49,Good,2,Good,49,Good,0,Good,41,Satisfactory,-5.56,12.19,85,Satisfactory
Angola,Sumbe,58,Moderate,2,Good,14,Good,1,Good,58,Satisfactory,-11.2053,13.8417,40,Good
Angola,Camacupa,154,Unhealthy,4,Good,28,Good,3,Good,154,Very Poor,-12.0256,17.4686,40,Good
Angola,Benguela,92,Moderate,3,Good,12,Good,2,Good,92,Poor,-12.55,13.4167,45,Good
Angola,Caxito,285,Very Unhealthy,23,Good,31,Good,14,Good,285,Severe,-8.58,13.6642,33,Good
Angola,Caluquembe,42,Good,2,Good,12,Good,0,Good,42,Satisfactory,-13.9208,14.5347,45,Good
Angola,Luena,66,Moderate,1,Good,22,Good,0,Good,66,Moderate,-11.7918,19.9062,33,Good
Angola,Huambo,28,Good,1,Good,21,Good,0,Good,28,Good,-12.7767,15.7347,40,Good
Angola,Malanje,68,Moderate,1,Good,21,Good,1,Good,68,Moderate,-9.5333,16.35,33,Good
Angola,Lucapa,172,Unhealthy,5,Good,33,Good,6,Good,172,Very Poor,-8.4228,20.7393,33,Good
Angola,Lubango,40,Good,1,Good,14,Good,0,Good,40,Satisfactory,-14.9167,13.5,45,Good
Angola,Saurimo,103,Unhealthy for Sensitive Groups,2,Good,31,Good,1,Good,103,Poor,-9.65,20.4,33,Good
Angola,Lobito,52,Moderate,1,Good,20,Good,0,Good,52,Satisfactory,-12.3597,13.5308,45,Good
Argentina,Rivadavia,22,Good,0,Good,14,Good,2,Good,22,Good,-31.5303,-68.5947,5,Good
Argentina,Mercedes,14,Good,1,Good,14,Good,0,Good,3,Good,-29.2,-58.0833,13,Good
Argentina,Rosario,57,Moderate,1,Good,23,Good,2,Good,57,Satisfactory,-32.9575,-60.6394,13,Good
Argentina,La Plata,43,Good,1,Good,12,Good,8,Good,43,Satisfactory,38.5352,-76.97,7,Good
Argentina,La Plata,43,Good,1,Good,12,Good,8,Good,43,Satisfactory,2.39,-75.9075,9,Good
Argentina,La Plata,43,Good,1,Good,12,Good,8,Good,43,Satisfactory,-34.9211,-57.9544,13,Good
Argentina,Venado Tuerto,19,Good,0,Good,19,Good,0,Good,15,Good,-33.75,-61.9667,13,Good
Argentina,San Juan,26,Good,1,Good,8,Good,4,Good,26,Good,13.826,121.396,8,Good
Argentina,Mercedes,14,Good,1,Good,14,Good,0,Good,3,Good,14.1093,123.0109,8,Good
Argentina,General Pico,15,Good,0,Good,15,Good,0,Good,14,Good,-35.6667,-63.7333,13,Good
Argentina,Rosario,57,Moderate,1,Good,23,Good,2,Good,57,Satisfactory,13.846,121.206,8,Good
Argentina,Comodoro Rivadavia,11,Good,0,Good,11,Good,1,Good,4,Good,-45.8647,-67.4808,7,Good
Argentina,Tandil,23,Good,0,Good,23,Good,0,Good,23,Good,-37.3167,-59.1333,13,Good
Argentina,Yacuiba,12,Good,0,Good,11,Good,0,Good,12,Good,-22.0153,-63.6772,17,Good
Argentina,Rosario,57,Moderate,1,Good,23,Good,2,Good,57,Satisfactory,14.4167,120.85,8,Good
Argentina,Azul,34,Good,0,Good,17,Good,0,Good,34,Satisfactory,-36.7833,-59.85,13,Good
Argentina,Mendoza,45,Good,1,Good,16,Good,4,Good,45,Satisfactory,-32.8833,-68.8167,197,Moderate
Argentina,Salta,43,Good,1,Good,0,Good,8,Good,43,Satisfactory,-24.7833,-65.4167,17,Good
Argentina,Gualeguay,15,Good,0,Good,15,Good,1,Good,14,Good,-33.15,-59.3333,13,Good
Argentina,Rawson,22,Good,0,Good,22,Good,0,Good,11,Good,-43.3,-65.1,7,Good
Argentina,Tres Arroyos,26,Good,0,Good,26,Good,0,Good,12,Good,-38.3667,-60.2667,13,Good
Argentina,Chacabuco,17,Good,0,Good,17,Good,1,Good,17,Good,-34.6333,-60.4667,13,Good
Argentina,Concordia,19,Good,0,Good,17,Good,0,Good,19,Good,10.2667,-74.8333,10,Good
Argentina,Concordia,19,Good,0,Good,17,Good,0,Good,19,Good,6.049,-75.909,27,Good
Argentina,Concordia,19,Good,0,Good,17,Good,0,Good,19,Good,-31.4,-58.0333,13,Good
Argentina,Catamarca,22,Good,0,Good,22,Good,0,Good,4,Good,-28.4667,-65.7833,47,Good
Argentina,Campana,54,Moderate,1,Good,23,Good,4,Good,54,Satisfactory,-34.1667,-58.9167,13,Good
Argentina,Posadas,31,Good,0,Good,13,Good,1,Good,31,Satisfactory,-27.3667,-55.9,59,Satisfactory
Argentina,San Juan,26,Good,1,Good,8,Good,4,Good,26,Good,18.3985,-66.061,16,Good
Argentina,Corrientes,13,Good,1,Good,12,Good,0,Good,13,Good,-27.4833,-58.8167,13,Good
Argentina,San Juan,26,Good,1,Good,8,Good,4,Good,26,Good,-31.5342,-68.5261,5,Good
Argentina,San Juan,26,Good,1,Good,8,Good,4,Good,26,Good,14.6,121.03,8,Good
Argentina,Villa Carlos Paz,60,Moderate,1,Good,7,Good,11,Good,60,Moderate,-31.4,-64.5167,5,Good
Argentina,Rafaela,24,Good,0,Good,24,Good,0,Good,9,Good,-31.2667,-61.4833,13,Good
Argentina,San Juan,26,Good,1,Good,8,Good,4,Good,26,Good,18.81,-71.23,16,Good
Argentina,Mercedes,14,Good,1,Good,14,Good,0,Good,3,Good,26.1533,-97.9128,18,Good
Argentina,Punta Alta,20,Good,0,Good,20,Good,0,Good,5,Good,-38.88,-62.075,13,Good
Argentina,General Roca,12,Good,0,Good,12,Good,1,Good,5,Good,-39.0333,-67.5833,8,Good
Argentina,Formosa,32,Good,0,Good,13,Good,0,Good,32,Satisfactory,-15.5369,-47.3339,43,Good
Argentina,Puerto Madryn,11,Good,0,Good,11,Good,0,Good,7,Good,-42.7667,-65.05,7,Good
Argentina,Trelew,18,Good,0,Good,18,Good,0,Good,2,Good,-43.25,-65.3,7,Good
Argentina,Rosario,57,Moderate,1,Good,23,Good,2,Good,57,Satisfactory,16.2333,120.4833,8,Good
Argentina,San Juan,26,Good,1,Good,8,Good,4,Good,26,Good,17.6834,120.732,8,Good
Argentina,Reconquista,18,Good,1,Good,9,Good,2,Good,18,Good,-29.1443,-59.6438,13,Good
Argentina,La Rioja,11,Good,0,Good,11,Good,0,Good,5,Good,-29.4125,-66.8542,47,Good
Argentina,Formosa,32,Good,0,Good,13,Good,0,Good,32,Satisfactory,-26.1833,-58.1833,59,Satisfactory
Argentina,Rosario,57,Moderate,1,Good,23,Good,2,Good,57,Satisfactory,12.5167,124.4167,9,Good
Argentina,Rosario,57,Moderate,1,Good,23,Good,2,Good,57,Satisfactory,-34.3139,-57.3525,13,Good
Argentina,Tartagal,18,Good,0,Good,18,Good,0,Good,5,Good,-22.5,-63.8333,17,Good
Argentina,Villeta,90,Moderate,2,Good,5,Good,3,Good,90,Poor,5.0083,-74.4738,9,Good
Argentina,Villeta,90,Moderate,2,Good,5,Good,3,Good,90,Poor,-25.51,-57.56,59,Satisfactory
Argentina,Bell Ville,20,Good,1,Good,11,Good,0,Good,20,Good,-32.6333,-62.6833,13,Good
Argentina,Necochea,23,Good,0,Good,23,Good,0,Good,17,Good,-38.55,-58.7333,13,Good
Argentina,Mercedes,14,Good,1,Good,14,Good,0,Good,3,Good,-33.25,-58.0333,13,Good
Argentina,San Juan,26,Good,1,Good,8,Good,4,Good,26,Good,14.4167,-88.4333,45,Good
Argentina,San Juan,26,Good,1,Good,8,Good,4,Good,26,Good,10.65,-61.45,3,Good
Argentina,Resistencia,37,Good,1,Good,3,Good,5,Good,37,Satisfactory,-27.4514,-58.9867,13,Good
Argentina,Rosario,57,Moderate,1,Good,23,Good,2,Good,57,Satisfactory,8.3814,126.0015,9,Good
Argentina,Pergamino,33,Good,1,Good,23,Good,1,Good,33,Satisfactory,-33.8836,-60.5669,13,Good
Argentina,Rivadavia,22,Good,0,Good,14,Good,2,Good,22,Good,-33.1833,-68.4667,197,Moderate
Argentina,Viedma,23,Good,0,Good,16,Good,0,Good,23,Good,-40.8,-63,13,Good
Argentina,Mercedes,14,Good,1,Good,14,Good,0,Good,3,Good,-34.65,-59.4333,13,Good
Argentina,Chivilcoy,16,Good,0,Good,16,Good,1,Good,14,Good,-34.9,-60.0167,13,Good
Argentina,San Juan,26,Good,1,Good,8,Good,4,Good,26,Good,9.9609,-84.0731,16,Good
Argentina,San Juan,26,Good,1,Good,8,Good,4,Good,26,Good,26.1903,-98.152,18,Good
Argentina,San Juan,26,Good,1,Good,8,Good,4,Good,26,Good,17.7431,120.4583,8,Good
Argentina,San Juan,26,Good,1,Good,8,Good,4,Good,26,Good,9.159,123.494,9,Good
Argentina,San Juan,26,Good,1,Good,8,Good,4,Good,26,Good,10.2667,125.1833,9,Good
Argentina,Ushuaia,13,Good,0,Good,13,Good,0,Good,0,Good,-54.8019,-68.3031,3,Good
Argentina,Alta Gracia,34,Good,1,Good,34,Good,1,Good,28,Good,-31.6667,-64.4333,5,Good
Argentina,San Juan,26,Good,1,Good,8,Good,4,Good,26,Good,16.6667,120.3333,8,Good
Argentina,Goya,20,Good,0,Good,20,Good,0,Good,9,Good,-29.1333,-59.25,13,Good
Armenia,Dilijan,32,Good,1,Good,27,Good,0,Good,32,Satisfactory,40.7408,44.8631,4,Good
Armenia,Yeghvard,89,Moderate,1,Good,40,Good,0,Good,89,Moderate,40.3217,44.4814,4,Good
Armenia,Martuni,43,Good,0,Good,33,Good,0,Good,43,Satisfactory,40.14,45.3064,4,Good
Armenia,Masis,100,Moderate,1,Good,40,Good,0,Good,100,Poor,40.0633,44.4408,4,Good
Armenia,Vanadzor,30,Good,1,Good,27,Good,0,Good,30,Satisfactory,40.8128,44.4883,4,Good
Armenia,Yerevan,52,Moderate,1,Good,37,Good,0,Good,52,Satisfactory,40.1814,44.5144,4,Good
Armenia,Vedi,61,Moderate,1,Good,26,Good,1,Good,61,Moderate,39.9106,44.7278,4,Good
Armenia,Sisian,45,Good,1,Good,37,Good,0,Good,45,Satisfactory,39.5208,46.0322,4,Good
Armenia,Kapan,92,Moderate,1,Good,37,Good,0,Good,92,Poor,39.2011,46.415,4,Good
Armenia,Spitak,51,Moderate,1,Good,36,Good,0,Good,51,Satisfactory,40.8372,44.2675,6,Good
Armenia,Ashtarak,39,Good,1,Good,29,Good,1,Good,39,Satisfactory,40.2975,44.3617,6,Good
Armenia,Alaverdi,53,Moderate,1,Good,31,Good,0,Good,53,Satisfactory,41.1333,44.65,4,Good
Armenia,Hrazdan,31,Good,0,Good,31,Good,0,Good,30,Satisfactory,40.5,44.7667,4,Good
Armenia,Goris,33,Good,1,Good,33,Good,0,Good,26,Good,39.5078,46.3386,4,Good
Armenia,Sevan,32,Good,1,Good,32,Good,0,Good,23,Good,40.555,44.9536,4,Good
Armenia,Vardenis,30,Good,0,Good,30,Good,0,Good,24,Good,40.1806,45.72,4,Good
Armenia,Artashat,56,Moderate,1,Good,38,Good,0,Good,56,Satisfactory,39.9539,44.5506,4,Good
Armenia,Ijevan,36,Good,1,Good,36,Good,0,Good,36,Satisfactory,40.8792,45.1472,4,Good
Armenia,Abovyan,56,Moderate,1,Good,40,Good,0,Good,56,Satisfactory,40.2739,44.6256,4,Good
Armenia,Gyumri,75,Moderate,1,Good,39,Good,0,Good,75,Moderate,40.7894,43.8475,3,Good
Aruba,Oranjestad,163,Unhealthy,0,Good,23,Good,0,Good,163,Very Poor,17.4833,-62.9833,16,Good
Aruba,Oranjestad,163,Unhealthy,0,Good,23,Good,0,Good,163,Very Poor,12.5186,-70.0358,10,Good
Australia,Cessnock,21,Good,0,Good,21,Good,8,Good,18,Good,-32.8342,151.3555,11,Good
Australia,Hobart,48,Good,0,Good,24,Good,1,Good,48,Satisfactory,-42.8806,147.325,6,Good
Australia,Brisbane,31,Good,0,Good,30,Good,6,Good,31,Satisfactory,-27.4678,153.0281,16,Good
Australia,Port Macquarie,29,Good,0,Good,29,Good,0,Good,7,Good,-31.4333,152.9,5,Good
Australia,Traralgon,16,Good,0,Good,15,Good,7,Good,16,Good,-38.1958,146.5403,6,Good
Australia,Dubbo,15,Good,0,Good,15,Good,0,Good,13,Good,-32.2569,148.6011,3,Good
Australia,Gawler,24,Good,0,Good,11,Good,11,Good,24,Good,-34.5981,138.745,4,Good
Australia,Roebourne,18,Good,0,Good,18,Good,0,Good,11,Good,-20.7667,117.15,7,Good
Australia,Alice Springs,52,Moderate,0,Good,18,Good,0,Good,52,Satisfactory,-23.7,133.8667,15,Good
Australia,Parkes,21,Good,0,Good,21,Good,0,Good,10,Good,-33.133,148.176,3,Good
Australia,Gympie,25,Good,0,Good,25,Good,3,Good,17,Good,-26.19,152.6655,6,Good
Australia,Warrnambool,27,Good,0,Good,27,Good,0,Good,20,Good,-38.3833,142.4833,5,Good
Australia,Wangaratta,15,Good,0,Good,15,Good,1,Good,15,Good,-36.3583,146.3125,3,Good
Australia,Nambour,32,Good,0,Good,27,Good,2,Good,32,Satisfactory,-26.6269,152.9591,6,Good
Australia,Tamworth,23,Good,0,Good,23,Good,1,Good,12,Good,-31.0833,150.9167,3,Good
Australia,Mount Isa,46,Good,0,Good,21,Good,0,Good,46,Satisfactory,-20.7261,139.4938,15,Good
Australia,Melton,57,Moderate,1,Good,2,Good,18,Good,57,Satisfactory,-37.6833,144.5833,5,Good
Australia,Mount Gambier,18,Good,0,Good,18,Good,0,Good,14,Good,-37.8294,140.7828,4,Good
Australia,Nerang,36,Good,1,Good,17,Good,7,Good,36,Satisfactory,-27.9956,153.322,5,Good
Australia,Sydney,42,Good,0,Good,15,Good,14,Good,42,Satisfactory,-33.8678,151.21,22,Good
Australia,Broken Hill,126,Unhealthy for Sensitive Groups,0,Good,15,Good,0,Good,126,Very Poor,-31.95,141.4667,9,Good
Australia,Ballina,34,Good,0,Good,34,Good,1,Good,15,Good,-28.8333,153.5333,3,Good
Australia,Toowoomba,22,Good,0,Good,22,Good,0,Good,7,Good,-27.5667,151.95,4,Good
Australia,Bundaberg,32,Good,0,Good,32,Good,0,Good,10,Good,-24.8661,152.3494,7,Good
Australia,Tamworth,23,Good,0,Good,23,Good,1,Good,12,Good,52.633,-1.695,12,Good
Australia,Darwin,102,Unhealthy for Sensitive Groups,2,Good,58,Good,1,Good,102,Poor,-12.4381,130.8411,6,Good
Australia,Newcastle,48,Good,0,Good,9,Good,14,Good,48,Satisfactory,-27.7464,29.9328,15,Good
Australia,Bowen,22,Good,0,Good,22,Good,0,Good,3,Good,-20.0102,148.2416,7,Good
Australia,Newcastle,48,Good,0,Good,9,Good,14,Good,48,Satisfactory,54.98,-1.61,6,Good
Australia,Newcastle,48,Good,0,Good,9,Good,14,Good,48,Satisfactory,47.5304,-122.1633,7,Good
Australia,Devonport,32,Good,0,Good,27,Good,0,Good,32,Satisfactory,-41.18,146.3503,3,Good
Australia,Ballarat,22,Good,0,Good,13,Good,6,Good,22,Good,-37.5608,143.8475,5,Good
Australia,Newcastle,48,Good,0,Good,9,Good,14,Good,48,Satisfactory,35.2401,-97.5995,11,Good
Australia,Murray Bridge,31,Good,0,Good,28,Good,0,Good,31,Satisfactory,-35.117,139.267,4,Good
Australia,Newcastle,48,Good,0,Good,9,Good,14,Good,48,Satisfactory,-32.9167,151.75,8,Good
Australia,Bongaree,32,Good,0,Good,24,Good,7,Good,32,Satisfactory,-27.0813,153.1636,16,Good
Australia,Adelaide,44,Good,0,Good,24,Good,1,Good,44,Satisfactory,-34.9275,138.6,6,Good
Australia,Mackay,29,Good,0,Good,29,Good,0,Good,15,Good,-21.1411,149.1858,9,Good
Australia,Maryborough,31,Good,0,Good,31,Good,0,Good,10,Good,-25.5375,152.7019,7,Good
Australia,Pakenham,24,Good,0,Good,17,Good,3,Good,24,Good,-38.0712,145.4878,18,Good
Australia,Geraldton,29,Good,0,Good,29,Good,0,Good,13,Good,-28.7744,114.6089,7,Good
Australia,Armidale,26,Good,0,Good,26,Good,0,Good,3,Good,-30.5,151.65,2,Good
Australia,Bairnsdale,26,Good,0,Good,26,Good,0,Good,8,Good,-37.8333,147.6167,6,Good
Australia,Palmerston,264,Very Unhealthy,9,Good,2,Good,17,Good,264,Severe,53.35,-6.379,7,Good
Australia,Whyalla,31,Good,0,Good,25,Good,0,Good,31,Satisfactory,-33.0333,137.5667,5,Good
Australia,Innisfail,26,Good,0,Good,25,Good,0,Good,26,Good,-17.5238,146.0311,8,Good
Australia,Wollongong,24,Good,0,Good,24,Good,2,Good,19,Good,-34.4331,150.8831,7,Good
Australia,Kiama,33,Good,1,Good,15,Good,12,Good,33,Satisfactory,-34.6708,150.8542,5,Good
Australia,Rockhampton,25,Good,0,Good,25,Good,4,Good,13,Good,-23.3781,150.5136,6,Good
Australia,Launceston,29,Good,0,Good,29,Good,0,Good,12,Good,50.637,-4.36,7,Good
Australia,Maryborough,31,Good,0,Good,31,Good,0,Good,10,Good,-37.05,143.735,3,Good
Australia,Yeppoon,23,Good,0,Good,23,Good,3,Good,11,Good,-23.1288,150.7444,6,Good
Australia,Lithgow,23,Good,0,Good,23,Good,1,Good,13,Good,-33.4833,150.15,3,Good
Australia,Port Augusta,25,Good,0,Good,23,Good,1,Good,25,Good,-32.4925,137.7658,5,Good
Australia,Queanbeyan,18,Good,0,Good,18,Good,1,Good,17,Good,-35.3533,149.2342,8,Good
Australia,Kwinana,27,Good,0,Good,27,Good,1,Good,23,Good,-32.2394,115.7702,7,Good
Australia,Wodonga,25,Good,0,Good,25,Good,0,Good,11,Good,-36.1214,146.8881,3,Good
Australia,Cranbourne,50,Good,1,Good,7,Good,17,Good,50,Satisfactory,-38.0996,145.2834,18,Good
Australia,Geelong,33,Good,0,Good,25,Good,1,Good,33,Satisfactory,-38.15,144.35,5,Good
Australia,Townsville,23,Good,0,Good,21,Good,1,Good,23,Good,-19.25,146.8167,8,Good
Australia,Raymond Terrace,24,Good,0,Good,24,Good,2,Good,10,Good,-32.7615,151.7441,11,Good
Australia,Busselton,32,Good,0,Good,32,Good,0,Good,8,Good,-33.6478,115.3458,5,Good
Australia,Hervey Bay,36,Good,0,Good,36,Good,0,Good,17,Good,-25.29,152.84,7,Good
Australia,Hobart,48,Good,0,Good,24,Good,1,Good,48,Satisfactory,44.4967,-88.1602,11,Good
Australia,Morwell,17,Good,0,Good,14,Good,7,Good,17,Good,-38.2333,146.4,6,Good
Australia,Mildura,27,Good,0,Good,25,Good,0,Good,27,Good,-34.1889,142.1583,4,Good
Australia,Port Pirie,20,Good,0,Good,20,Good,0,Good,19,Good,-33.1858,138.0169,3,Good
Australia,Launceston,29,Good,0,Good,29,Good,0,Good,12,Good,-41.4419,147.145,5,Good
Australia,Lismore,31,Good,0,Good,31,Good,2,Good,16,Good,-28.8167,153.2833,3,Good
Australia,Coffs Harbour,27,Good,0,Good,27,Good,0,Good,17,Good,-30.3022,153.1189,4,Good
Australia,Wagga Wagga,19,Good,0,Good,15,Good,2,Good,19,Good,-35.1189,147.3689,5,Good
Australia,Caboolture,24,Good,0,Good,21,Good,8,Good,24,Good,-27.0667,152.967,16,Good
Australia,Griffith,24,Good,0,Good,24,Good,0,Good,10,Good,-34.29,146.04,3,Good
Australia,Karratha,22,Good,0,Good,22,Good,0,Good,9,Good,-20.7364,116.8464,7,Good
Australia,Griffith,24,Good,0,Good,24,Good,0,Good,10,Good,41.5277,-87.4239,15,Good
Australia,Bendigo,23,Good,0,Good,23,Good,0,Good,23,Good,-36.75,144.2667,3,Good
Australia,Albury,24,Good,0,Good,11,Good,3,Good,24,Good,-36.0806,146.9158,3,Good
Australia,Batemans Bay,29,Good,0,Good,29,Good,0,Good,19,Good,-35.7081,150.1744,3,Good
Australia,Cairns,28,Good,0,Good,28,Good,0,Good,24,Good,-16.92,145.78,8,Good
Australia,Caloundra,28,Good,0,Good,28,Good,2,Good,17,Good,-26.7986,153.1289,5,Good
Australia,Canberra,24,Good,0,Good,24,Good,1,Good,11,Good,-35.2931,149.1269,8,Good
Australia,Hobart,48,Good,0,Good,24,Good,1,Good,48,Satisfactory,41.514,-87.2729,16,Good
Australia,Burnie,26,Good,0,Good,26,Good,1,Good,12,Good,-41.0636,145.8753,3,Good
Australia,Singleton,31,Good,0,Good,3,Good,13,Good,31,Satisfactory,-32.5667,151.1697,5,Good
Australia,Muswellbrook,22,Good,0,Good,22,Good,3,Good,9,Good,-32.2654,150.8885,6,Good
Australia,Goulburn,22,Good,0,Good,22,Good,0,Good,15,Good,-34.7547,149.6186,3,Good
Australia,Katherine,18,Good,0,Good,18,Good,0,Good,11,Good,-14.4667,132.2667,6,Good
Australia,Taree,32,Good,0,Good,22,Good,0,Good,32,Satisfactory,-31.9,152.45,5,Good
Austria,Bludenz,35,Good,1,Good,29,Good,1,Good,35,Satisfactory,47.1533,9.8219,6,Good
Austria,Hallein,32,Good,1,Good,32,Good,1,Good,11,Good,47.6667,13.0833,7,Good
Austria,Wolfsberg,66,Moderate,1,Good,38,Good,1,Good,66,Moderate,46.8419,14.8408,19,Good
Austria,Baden,58,Moderate,1,Good,31,Good,2,Good,58,Satisfactory,48.0075,16.2344,8,Good
Austria,Innsbruck,54,Moderate,1,Good,32,Good,1,Good,54,Satisfactory,47.2683,11.3933,19,Good
Austria,Bad Ischl,68,Moderate,1,Good,34,Good,1,Good,68,Moderate,47.7115,13.6239,6,Good
Austria,Baden,58,Moderate,1,Good,31,Good,2,Good,58,Satisfactory,47.4667,8.3,8,Good
Austria,Telfs,51,Moderate,1,Good,47,Good,0,Good,51,Satisfactory,47.3069,11.0722,19,Good
Austria,Kapfenberg,61,Moderate,1,Good,36,Good,0,Good,61,Moderate,47.4394,15.2894,8,Good
Austria,Wels,75,Moderate,1,Good,55,Good,0,Good,75,Moderate,48.15,14.0167,6,Good
Austria,Mistelbach,68,Moderate,1,Good,38,Good,2,Good,68,Moderate,48.5667,16.5667,11,Good
Austria,Wiener Neustadt,35,Good,1,Good,28,Good,1,Good,35,Satisfactory,47.8167,16.25,9,Good
Austria,Ternitz,27,Good,0,Good,27,Good,1,Good,20,Good,47.7167,16.0333,9,Good
Austria,Kufstein,31,Good,1,Good,31,Good,1,Good,15,Good,47.5833,12.1667,19,Good
Austria,Enns,62,Moderate,1,Good,39,Good,1,Good,62,Moderate,48.2167,14.475,18,Good
Austria,Hohenems,52,Moderate,1,Good,31,Good,2,Good,52,Satisfactory,47.3667,9.6667,6,Good
Austria,Burghausen,67,Moderate,1,Good,25,Good,4,Good,67,Moderate,48.1667,12.8333,5,Good
Austria,Leonding,56,Moderate,1,Good,45,Good,1,Good,56,Satisfactory,48.2792,14.2528,6,Good
Austria,Villach,64,Moderate,1,Good,39,Good,0,Good,64,Moderate,46.6167,13.8333,16,Good
Austria,Steyr,30,Good,1,Good,28,Good,1,Good,30,Satisfactory,48.0333,14.4167,6,Good
Austria,Knittelfeld,63,Moderate,1,Good,40,Good,0,Good,63,Moderate,47.215,14.8294,12,Good
Austria,Schwechat,66,Moderate,1,Good,37,Good,2,Good,66,Moderate,48.1411,16.4786,10,Good
Austria,Hard,52,Moderate,1,Good,31,Good,2,Good,52,Satisfactory,47.4892,9.69,6,Good
Austria,Rankweil,36,Good,1,Good,36,Good,1,Good,35,Satisfactory,47.2667,9.65,6,Good
Austria,Stockerau,38,Good,1,Good,30,Good,1,Good,38,Satisfactory,48.3858,16.2108,9,Good
Austria,Klosterneuburg,59,Moderate,1,Good,30,Good,3,Good,59,Satisfactory,48.3042,16.3167,10,Good
Austria,Eisenstadt,44,Good,1,Good,30,Good,1,Good,44,Satisfactory,47.85,16.5167,10,Good
Austria,Zwettl,58,Moderate,1,Good,31,Good,2,Good,58,Satisfactory,48.6033,15.1689,7,Good
Austria,Korneuburg,63,Moderate,1,Good,42,Good,2,Good,63,Moderate,48.3453,16.3331,10,Good
Austria,Dornbirn,29,Good,1,Good,25,Good,3,Good,29,Good,47.4167,9.75,6,Good
Austria,Schwaz,57,Moderate,1,Good,23,Good,2,Good,57,Satisfactory,47.35,11.7,6,Good
Austria,Salzburg,70,Moderate,1,Good,34,Good,1,Good,70,Moderate,47.8,13.045,7,Good
Austria,Perchtoldsdorf,70,Moderate,1,Good,67,Good,0,Good,70,Moderate,48.1167,16.2667,9,Good
Austria,Leoben,63,Moderate,1,Good,39,Good,0,Good,63,Moderate,47.3817,15.0972,9,Good
Austria,Graz,57,Moderate,1,Good,47,Good,0,Good,57,Satisfactory,47.0708,15.4386,12,Good
Austria,Traun,30,Good,1,Good,28,Good,1,Good,30,Satisfactory,48.2217,14.2397,6,Good
Austria,Amstetten,50,Good,1,Good,33,Good,1,Good,50,Satisfactory,48.1167,14.8667,7,Good
Austria,Linz,57,Moderate,1,Good,33,Good,1,Good,57,Satisfactory,48.3058,14.2864,6,Good
Austria,Gmunden,58,Moderate,1,Good,37,Good,2,Good,58,Satisfactory,47.9181,13.7994,6,Good
Austria,Traiskirchen,58,Moderate,1,Good,31,Good,3,Good,58,Satisfactory,48.0189,16.2922,9,Good
Austria,Bregenz,41,Good,1,Good,30,Good,5,Good,41,Satisfactory,47.505,9.7492,6,Good
Austria,Lienz,50,Good,1,Good,28,Good,1,Good,50,Satisfactory,46.8297,12.7697,9,Good
Austria,Ansfelden,55,Moderate,1,Good,33,Good,1,Good,55,Satisfactory,48.2083,14.2889,6,Good
Austria,Hollabrunn,66,Moderate,1,Good,40,Good,1,Good,66,Moderate,48.5667,16.0833,8,Good
Austria,Feldkirchen,28,Good,0,Good,28,Good,0,Good,9,Good,46.7236,14.0919,20,Good
Austria,Marchtrenk,75,Moderate,1,Good,54,Good,0,Good,75,Moderate,48.1917,14.1106,6,Good
Austria,Bischofshofen,26,Good,0,Good,26,Good,1,Good,17,Good,47.4172,13.2194,7,Good
Austria,Klagenfurt,61,Moderate,1,Good,43,Good,0,Good,61,Moderate,46.6167,14.3,20,Good
Azerbaijan,Tovuz,41,Good,1,Good,36,Good,0,Good,41,Satisfactory,40.9922,45.6289,4,Good
Azerbaijan,Qazax,70,Moderate,1,Good,34,Good,0,Good,70,Moderate,41.0933,45.3661,4,Good
Azerbaijan,Salyan,65,Moderate,1,Good,40,Good,0,Good,65,Moderate,39.595,48.9792,10,Good
Azerbaijan,Susa,31,Good,1,Good,31,Good,0,Good,28,Good,5.4528,-73.814,8,Good
Azerbaijan,Sabirabad,64,Moderate,1,Good,42,Good,0,Good,64,Moderate,40.0128,48.4789,10,Good
Azerbaijan,Qax,32,Good,1,Good,32,Good,0,Good,28,Good,41.4225,46.9242,4,Good
Azerbaijan,Zabrat,95,Moderate,1,Good,36,Good,0,Good,95,Poor,40.4872,49.9525,10,Good
Azerbaijan,Baku,79,Moderate,1,Good,46,Good,0,Good,79,Moderate,40.3667,49.8352,10,Good
Azerbaijan,Salyan,65,Moderate,1,Good,40,Good,0,Good,65,Moderate,28.35,82.1833,10,Good
Azerbaijan,Qusar,76,Moderate,1,Good,33,Good,0,Good,76,Moderate,41.4264,48.4356,10,Good
Azerbaijan,Saray,81,Moderate,1,Good,47,Good,0,Good,81,Moderate,40.5322,49.7164,10,Good
Azerbaijan,Xudat,39,Good,1,Good,31,Good,0,Good,39,Satisfactory,41.6281,48.6828,24,Good
Azerbaijan,Pushkino,82,Moderate,1,Good,46,Good,0,Good,82,Moderate,56.0167,37.8333,4,Good
Azerbaijan,Yevlax,64,Moderate,1,Good,44,Good,0,Good,64,Moderate,40.6172,47.15,10,Good
Azerbaijan,Qobustan,81,Moderate,1,Good,48,Good,0,Good,81,Moderate,40.5367,48.9328,10,Good
Azerbaijan,Qobustan,81,Moderate,1,Good,48,Good,0,Good,81,Moderate,40.0842,49.4158,10,Good
Azerbaijan,Buzovna,73,Moderate,1,Good,38,Good,0,Good,73,Moderate,40.5161,50.1164,10,Good
Azerbaijan,Saray,81,Moderate,1,Good,47,Good,0,Good,81,Moderate,41.4411,27.9216,4,Good
Azerbaijan,Qovlar,34,Good,1,Good,34,Good,0,Good,15,Good,40.9419,45.7358,10,Good
Azerbaijan,Ucar,49,Good,1,Good,31,Good,0,Good,49,Satisfactory,40.5183,47.6542,4,Good
Azerbaijan,Zaqatala,35,Good,1,Good,35,Good,0,Good,30,Satisfactory,41.6336,46.6433,10,Good
Azerbaijan,Quba,40,Good,1,Good,34,Good,0,Good,40,Satisfactory,41.3597,48.5125,4,Good
Azerbaijan,Culfa,52,Moderate,1,Good,35,Good,0,Good,52,Satisfactory,38.9558,45.6308,64,Satisfactory
Bahrain,Manama,188,Unhealthy,2,Good,127,Unhealthy for Sensitive Groups,3,Good,188,Very Poor,26.225,50.5775,39,Good
Bangladesh,Khulna,53,Moderate,1,Good,29,Good,1,Good,53,Satisfactory,22.8167,89.55,19,Good
Bangladesh,Habiganj,61,Moderate,3,Good,35,Good,2,Good,61,Moderate,24.3808,91.4144,21,Good
Bangladesh,Tungi,152,Unhealthy,4,Good,18,Good,12,Good,152,Very Poor,23.9,90.41,21,Good
Bangladesh,Netrakona,60,Moderate,1,Good,42,Good,0,Good,60,Moderate,24.8819,90.7275,21,Good
Bangladesh,Sherpur,65,Moderate,2,Good,65,Good,1,Good,60,Moderate,24.665,89.419,21,Good
Bangladesh,Narsingdi,178,Unhealthy,2,Good,49,Good,2,Good,178,Very Poor,23.9167,90.7167,50,Good
Bangladesh,Rangpur,58,Moderate,2,Good,44,Good,1,Good,58,Satisfactory,25.75,89.2444,19,Good
Bangladesh,Feni,157,Unhealthy,2,Good,36,Good,2,Good,157,Very Poor,23.0183,91.41,21,Good
Bangladesh,Sakhipur,74,Moderate,3,Good,74,Good,2,Good,63,Moderate,24.3167,90.175,47,Good
Bangladesh,Sherpur,65,Moderate,2,Good,65,Good,1,Good,60,Moderate,25.6539,84.9793,21,Good
Bangladesh,Bhola,165,Unhealthy,1,Good,44,Good,1,Good,165,Very Poor,22.6863,90.6461,11,Good
Barbados,Bridgetown,73,Moderate,0,Good,24,Good,0,Good,73,Moderate,13.0975,-59.6167,7,Good
Barbados,Bridgetown,73,Moderate,0,Good,24,Good,0,Good,73,Moderate,39.1552,-84.6359,8,Good
Belarus,Lyuban,52,Moderate,1,Good,28,Good,1,Good,52,Satisfactory,52.7819,28.0525,7,Good
Belarus,Kobryn,38,Good,1,Good,38,Good,0,Good,34,Satisfactory,52.2167,24.3667,7,Good
Belarus,Pinsk,36,Good,1,Good,36,Good,0,Good,27,Good,52.1153,26.1031,7,Good
Belarus,Hrodna,31,Good,1,Good,31,Good,0,Good,22,Good,53.6667,23.8333,8,Good
Belarus,Stolin,35,Good,1,Good,35,Good,0,Good,29,Good,51.8833,26.85,8,Good
Belarus,Lida,34,Good,1,Good,34,Good,0,Good,21,Good,53.8833,25.3,7,Good
Belarus,Ivanava,33,Good,1,Good,33,Good,1,Good,20,Good,52.1333,25.55,8,Good
Belarus,Minsk,35,Good,1,Good,27,Good,3,Good,35,Satisfactory,53.9,27.5667,8,Good
Belarus,Navahrudak,31,Good,1,Good,31,Good,0,Good,14,Good,53.5833,25.8167,8,Good
Belarus,Pastavy,35,Good,0,Good,35,Good,0,Good,32,Satisfactory,55.1167,26.8333,8,Good
Belarus,Orsha,36,Good,1,Good,36,Good,0,Good,20,Good,54.5092,30.4258,7,Good
Belarus,Vawkavysk,36,Good,0,Good,36,Good,0,Good,29,Good,53.1667,24.4667,7,Good
Belarus,Masty,35,Good,1,Good,35,Good,0,Good,18,Good,53.417,24.55,8,Good
Belarus,Mazyr,40,Good,1,Good,27,Good,1,Good,40,Satisfactory,52.05,29.2667,8,Good
Belarus,Horki,32,Good,1,Good,32,Good,0,Good,12,Good,54.2667,30.9833,8,Good
Belarus,Slonim,32,Good,1,Good,32,Good,0,Good,17,Good,53.0833,25.3167,6,Good
Belarus,Haradok,33,Good,1,Good,33,Good,0,Good,11,Good,55.4667,30,8,Good
Belarus,Salihorsk,34,Good,1,Good,34,Good,0,Good,23,Good,52.8,27.5333,18,Good
Belgium,Destelbergen,39,Good,1,Good,24,Good,4,Good,39,Satisfactory,51.05,3.8,15,Good
Belgium,Herentals,62,Moderate,1,Good,23,Good,8,Good,62,Moderate,51.1833,4.8333,18,Good
Belgium,Kraainem,36,Good,1,Good,29,Good,3,Good,36,Satisfactory,50.8619,4.4572,15,Good
Belgium,Bree,30,Good,0,Good,26,Good,3,Good,30,Satisfactory,51.1333,5.5833,17,Good
Belgium,Farciennes,34,Good,1,Good,29,Good,2,Good,34,Satisfactory,50.4313,4.5476,15,Good
Belgium,Westerlo,41,Good,1,Good,28,Good,3,Good,41,Satisfactory,51.0833,4.9167,17,Good
Belgium,Kortenberg,53,Moderate,1,Good,38,Good,2,Good,53,Satisfactory,50.8833,4.5333,9,Good
Belgium,Wevelgem,38,Good,1,Good,33,Good,2,Good,38,Satisfactory,50.8081,3.1839,17,Good
Belgium,Nivelles,40,Good,1,Good,22,Good,5,Good,40,Satisfactory,50.5833,4.3167,18,Good
Belgium,Lessines,35,Good,0,Good,28,Good,3,Good,35,Satisfactory,50.7167,3.8333,15,Good
Belgium,Overpelt,37,Good,1,Good,30,Good,3,Good,37,Satisfactory,51.2167,5.4167,18,Good
Belgium,Quaregnon,55,Moderate,1,Good,27,Good,4,Good,55,Satisfactory,50.4333,3.8667,18,Good
Belgium,De Pinte,36,Good,1,Good,25,Good,3,Good,36,Satisfactory,51,3.65,15,Good
Belgium,Zelzate,58,Moderate,1,Good,36,Good,4,Good,58,Satisfactory,51.2,3.8167,15,Good
Belgium,Rotselaar,51,Moderate,1,Good,28,Good,6,Good,51,Satisfactory,50.9511,4.7108,14,Good
Belgium,Peer,37,Good,1,Good,32,Good,3,Good,37,Satisfactory,51.1328,5.4536,14,Good
Belgium,Oostkamp,43,Good,1,Good,38,Good,2,Good,43,Satisfactory,51.1544,3.2353,10,Good
Belgium,Diksmuide,40,Good,1,Good,26,Good,2,Good,40,Satisfactory,51.0333,2.8667,12,Good
Belgium,Virton,58,Moderate,1,Good,40,Good,2,Good,58,Satisfactory,49.5675,5.5325,15,Good
Belgium,Bocholt,37,Good,1,Good,33,Good,3,Good,37,Satisfactory,51.1722,5.5794,18,Good
Belgium,Poperinge,38,Good,1,Good,25,Good,3,Good,38,Satisfactory,50.8547,2.7256,16,Good
Belgium,Andenne,35,Good,1,Good,30,Good,3,Good,35,Satisfactory,50.4833,5.1,14,Good
Belgium,Borsbeek,38,Good,1,Good,28,Good,4,Good,38,Satisfactory,51.2,4.4833,14,Good
Belgium,Balen,36,Good,1,Good,23,Good,5,Good,36,Satisfactory,51.1667,5.15,16,Good
Belgium,Ciney,43,Good,1,Good,23,Good,5,Good,43,Satisfactory,50.3,5.1,14,Good
Belgium,Hasselt,48,Good,1,Good,30,Good,3,Good,48,Satisfactory,50.9305,5.3385,18,Good
Belgium,Ronse,51,Moderate,1,Good,38,Good,1,Good,51,Satisfactory,50.75,3.6,18,Good
Belgium,Nieuwpoort,31,Good,1,Good,29,Good,3,Good,31,Satisfactory,51.1167,2.75,13,Good
Belgium,Aubange,30,Good,1,Good,28,Good,3,Good,30,Satisfactory,49.5667,5.805,17,Good
Belgium,Hoeilaart,67,Moderate,1,Good,28,Good,7,Good,67,Moderate,50.7667,4.4667,17,Good
Belgium,Overijse,46,Good,1,Good,26,Good,4,Good,46,Satisfactory,50.7833,4.5333,16,Good
Belgium,Tienen,39,Good,1,Good,30,Good,3,Good,39,Satisfactory,50.8,4.9333,9,Good
Belgium,Asse,52,Moderate,1,Good,38,Good,2,Good,52,Satisfactory,50.9,4.2,9,Good
Belgium,Menen,38,Good,1,Good,26,Good,3,Good,38,Satisfactory,50.7956,3.1217,16,Good
Belgium,Wanze,50,Good,1,Good,22,Good,5,Good,50,Satisfactory,50.5353,5.2133,10,Good
Belgium,Ichtegem,36,Good,1,Good,36,Good,0,Good,32,Satisfactory,51.1,3,12,Good
Belgium,Arlon,61,Moderate,1,Good,49,Good,0,Good,61,Moderate,49.6833,5.8167,17,Good
Belgium,Gerpinnes,39,Good,1,Good,22,Good,5,Good,39,Satisfactory,50.3369,4.5283,14,Good
Belgium,Grobbendonk,38,Good,1,Good,30,Good,3,Good,38,Satisfactory,51.2,4.7167,14,Good
Belgium,De Haan,32,Good,0,Good,32,Good,1,Good,31,Satisfactory,51.2731,3.0336,18,Good
Belgium,Berlare,49,Good,1,Good,37,Good,2,Good,49,Satisfactory,51.025,4.0025,14,Good
Belgium,Schilde,36,Good,0,Good,27,Good,3,Good,36,Satisfactory,51.2333,4.5667,9,Good
Belgium,Bocholt,37,Good,1,Good,33,Good,3,Good,37,Satisfactory,51.8333,6.6167,9,Good
Belgium,Buggenhout,37,Good,1,Good,28,Good,3,Good,37,Satisfactory,51,4.2,15,Good
Belgium,Eupen,30,Good,0,Good,25,Good,2,Good,30,Satisfactory,50.6333,6.0333,14,Good
Belgium,Maaseik,60,Moderate,1,Good,26,Good,6,Good,60,Moderate,51.1019,5.7856,9,Good
Belgium,Tubize,48,Good,1,Good,25,Good,5,Good,48,Satisfactory,50.693,4.2047,16,Good
Belgium,Herve,39,Good,1,Good,22,Good,5,Good,39,Satisfactory,50.6333,5.8,16,Good
Belgium,Kontich,49,Good,1,Good,37,Good,2,Good,49,Satisfactory,51.1333,4.45,15,Good
Belgium,Genk,47,Good,1,Good,30,Good,3,Good,47,Satisfactory,50.9662,5.5021,18,Good
Belgium,Geraardsbergen,52,Moderate,1,Good,38,Good,2,Good,52,Satisfactory,50.7667,3.8667,16,Good
Belgium,Gembloux,55,Moderate,1,Good,41,Good,1,Good,55,Satisfactory,50.5667,4.6833,18,Good
Belgium,Wichelen,60,Moderate,1,Good,33,Good,5,Good,60,Moderate,51,3.9667,18,Good
Belgium,Lede,42,Good,1,Good,28,Good,4,Good,42,Satisfactory,50.9667,3.9833,14,Good
Belgium,Lanaken,43,Good,1,Good,25,Good,4,Good,43,Satisfactory,50.8925,5.6497,9,Good
Belgium,Mouscron,48,Good,1,Good,36,Good,3,Good,48,Satisfactory,50.7333,3.2167,10,Good
Belgium,Torhout,40,Good,1,Good,32,Good,2,Good,40,Satisfactory,51.0661,3.1014,15,Good
Belgium,Diest,53,Moderate,1,Good,38,Good,1,Good,53,Satisfactory,50.9847,5.0514,16,Good
Belgium,Duffel,51,Moderate,1,Good,38,Good,2,Good,51,Satisfactory,51.1,4.5167,15,Good
Belgium,Verviers,48,Good,1,Good,23,Good,4,Good,48,Satisfactory,50.5833,5.85,17,Good
Belgium,Anderlues,67,Moderate,1,Good,32,Good,4,Good,67,Moderate,50.408,4.2696,16,Good
Belgium,Soumagne,48,Good,1,Good,23,Good,4,Good,48,Satisfactory,50.6167,5.75,15,Good
Belgium,Beveren,47,Good,1,Good,38,Good,2,Good,47,Satisfactory,51.2,4.25,9,Good
Belgium,Dilbeek,48,Good,1,Good,27,Good,4,Good,48,Satisfactory,50.8333,4.25,18,Good
Belgium,Nevele,41,Good,1,Good,30,Good,3,Good,41,Satisfactory,51.0333,3.55,18,Good
Belgium,Herzele,51,Moderate,1,Good,37,Good,2,Good,51,Satisfactory,50.8833,3.8833,17,Good
Belgium,Wavre,57,Moderate,1,Good,30,Good,6,Good,57,Satisfactory,50.7167,4.6,15,Good
Belgium,Herselt,52,Moderate,1,Good,37,Good,1,Good,52,Satisfactory,51.05,4.8833,16,Good
Belgium,Huy,35,Good,1,Good,23,Good,4,Good,35,Satisfactory,50.5167,5.2333,16,Good
Belgium,Edegem,63,Moderate,1,Good,27,Good,8,Good,63,Moderate,51.15,4.45,15,Good
Belgium,Turnhout,46,Good,1,Good,39,Good,1,Good,46,Satisfactory,51.3167,4.95,14,Good
Belgium,Zoersel,46,Good,1,Good,28,Good,6,Good,46,Satisfactory,51.2667,4.7,17,Good
Belgium,Kuurne,38,Good,1,Good,23,Good,3,Good,38,Satisfactory,50.8519,3.2861,10,Good
Belgium,Ostend,39,Good,1,Good,39,Good,2,Good,30,Satisfactory,51.2258,2.9194,10,Good
Belgium,Gistel,38,Good,1,Good,33,Good,2,Good,38,Satisfactory,51.1561,2.9672,17,Good
Belgium,Boortmeerbeek,65,Moderate,1,Good,26,Good,7,Good,65,Moderate,50.9833,4.5667,18,Good
Belgium,Haaltert,40,Good,1,Good,24,Good,4,Good,40,Satisfactory,50.9,4,9,Good
Belgium,Merchtem,43,Good,1,Good,28,Good,4,Good,43,Satisfactory,50.9667,4.2333,18,Good
Belgium,Tournai,38,Good,1,Good,26,Good,3,Good,38,Satisfactory,50.6056,3.3881,10,Good
Belgium,Roeselare,43,Good,1,Good,31,Good,3,Good,43,Satisfactory,50.9447,3.1233,10,Good
Belgium,Jabbeke,39,Good,1,Good,26,Good,3,Good,39,Satisfactory,51.1833,3.1,14,Good
Belgium,Beernem,50,Good,1,Good,37,Good,3,Good,50,Satisfactory,51.1428,3.3408,18,Good
Belgium,Oosterzele,44,Good,1,Good,27,Good,5,Good,44,Satisfactory,50.95,3.8,14,Good
Belgium,Brecht,48,Good,1,Good,30,Good,6,Good,48,Satisfactory,51.35,4.6333,15,Good
Belgium,Bornem,40,Good,1,Good,28,Good,4,Good,40,Satisfactory,51.1,4.2333,18,Good
Belgium,Koksijde,41,Good,1,Good,33,Good,2,Good,41,Satisfactory,51.1,2.65,18,Good
Belgium,Gavere,49,Good,1,Good,37,Good,2,Good,49,Satisfactory,50.9333,3.6667,9,Good
Belgium,Wattrelos,38,Good,1,Good,23,Good,3,Good,38,Satisfactory,50.7,3.217,16,Good
Belgium,Profondeville,51,Moderate,1,Good,22,Good,5,Good,51,Satisfactory,50.3769,4.87,16,Good
Belgium,Dinant,43,Good,1,Good,23,Good,5,Good,43,Satisfactory,50.2667,4.9167,14,Good
Belgium,Lommel,39,Good,1,Good,29,Good,3,Good,39,Satisfactory,51.2333,5.3167,15,Good
Belgium,Aarschot,44,Good,1,Good,29,Good,3,Good,44,Satisfactory,50.9842,4.8333,11,Good
Belgium,Essen,38,Good,1,Good,28,Good,4,Good,38,Satisfactory,51.4667,4.4667,11,Good
Belgium,Essen,38,Good,1,Good,28,Good,4,Good,38,Satisfactory,51.4508,7.0131,15,Good
Belgium,Retie,48,Good,1,Good,39,Good,1,Good,48,Satisfactory,51.2667,5.0667,16,Good
Belgium,Oupeye,56,Moderate,1,Good,41,Good,1,Good,56,Satisfactory,50.7083,5.6431,16,Good
Belgium,Blegny,61,Moderate,1,Good,32,Good,4,Good,61,Moderate,50.6667,5.7333,15,Good
Belgium,Leuven,35,Good,1,Good,26,Good,3,Good,35,Satisfactory,50.8833,4.7,18,Good
Belgium,Evergem,40,Good,1,Good,31,Good,3,Good,40,Satisfactory,51.0167,3.7,16,Good
Belgium,Hannut,48,Good,1,Good,24,Good,4,Good,48,Satisfactory,50.6667,5.0833,16,Good
Belgium,Durbuy,64,Moderate,1,Good,35,Good,4,Good,64,Moderate,50.3522,5.4563,14,Good
Belgium,Berlaar,37,Good,0,Good,26,Good,4,Good,37,Satisfactory,51.1167,4.65,15,Good
Belgium,Theux,61,Moderate,1,Good,36,Good,3,Good,61,Moderate,50.5349,5.8134,17,Good
Belgium,Thuin,40,Good,1,Good,24,Good,3,Good,40,Satisfactory,50.3333,4.2833,14,Good
Belgium,Boechout,40,Good,1,Good,29,Good,3,Good,40,Satisfactory,51.15,4.4833,16,Good
Belgium,Willebroek,50,Good,1,Good,38,Good,2,Good,50,Satisfactory,51.0667,4.3667,16,Good
Belgium,Seraing,35,Good,1,Good,32,Good,3,Good,35,Satisfactory,50.5833,5.5,9,Good
Belgium,Wemmel,44,Good,1,Good,27,Good,4,Good,44,Satisfactory,50.9167,4.3,11,Good
Belgium,Kalmthout,30,Good,1,Good,29,Good,3,Good,30,Satisfactory,51.3833,4.4667,10,Good
Belgium,Bredene,42,Good,1,Good,27,Good,2,Good,42,Satisfactory,51.2336,2.9756,15,Good
Belgium,Arendonk,32,Good,1,Good,30,Good,3,Good,32,Satisfactory,51.3167,5.0833,17,Good
Belgium,Anzegem,38,Good,0,Good,27,Good,3,Good,38,Satisfactory,50.8336,3.4783,18,Good
Belgium,Mons,56,Moderate,1,Good,27,Good,4,Good,56,Satisfactory,50.45,3.95,17,Good
Belgium,Beersel,53,Moderate,1,Good,38,Good,2,Good,53,Satisfactory,50.7631,4.3086,10,Good
Belgium,Moorslede,42,Good,1,Good,27,Good,5,Good,42,Satisfactory,50.8906,3.0628,13,Good
Belgium,Assenede,57,Moderate,1,Good,37,Good,4,Good,57,Satisfactory,51.2333,3.75,14,Good
Belgium,Ranst,38,Good,1,Good,29,Good,3,Good,38,Satisfactory,51.2,4.55,14,Good
Belgium,Lummen,46,Good,1,Good,30,Good,3,Good,46,Satisfactory,50.9833,5.2,14,Good
Belgium,Wommelgem,40,Good,1,Good,29,Good,3,Good,40,Satisfactory,51.2,4.5167,14,Good
Belgium,Maldegem,32,Good,0,Good,32,Good,1,Good,31,Satisfactory,51.2,3.4333,17,Good
Belgium,Fleurus,58,Moderate,1,Good,25,Good,5,Good,58,Satisfactory,50.4833,4.5333,15,Good
Belgium,Hamme,50,Good,1,Good,38,Good,2,Good,50,Satisfactory,51.0833,4.1333,18,Good
Belgium,Tervuren,44,Good,1,Good,25,Good,4,Good,44,Satisfactory,50.8167,4.5,18,Good
Belgium,Brussels,53,Moderate,1,Good,37,Good,2,Good,53,Satisfactory,50.8467,4.3525,15,Good
Belgium,Lubbeek,35,Good,1,Good,26,Good,3,Good,35,Satisfactory,50.8817,4.8414,9,Good
Belgium,Ieper,38,Good,1,Good,37,Good,1,Good,38,Satisfactory,50.8508,2.885,15,Good
Belgium,Dendermonde,42,Good,1,Good,28,Good,4,Good,42,Satisfactory,51.0333,4.1,16,Good
Belgium,Kruibeke,47,Good,1,Good,38,Good,2,Good,47,Satisfactory,51.1667,4.3,17,Good
Belgium,Waregem,38,Good,1,Good,24,Good,3,Good,38,Satisfactory,50.8811,3.4001,16,Good
Belgium,Antwerp,39,Good,1,Good,30,Good,3,Good,39,Satisfactory,51.2178,4.4003,17,Good
Belgium,Meulebeke,42,Good,1,Good,30,Good,4,Good,42,Satisfactory,50.9497,3.2869,16,Good
Belgium,Rumst,37,Good,1,Good,28,Good,3,Good,37,Satisfactory,51.0833,4.4167,11,Good
Belgium,Stabroek,37,Good,1,Good,30,Good,3,Good,37,Satisfactory,51.3333,4.3667,15,Good
Belgium,Dison,57,Moderate,1,Good,42,Good,1,Good,57,Satisfactory,50.6167,5.85,10,Good
Belgium,Staden,42,Good,1,Good,32,Good,3,Good,42,Satisfactory,50.975,3.0147,17,Good
Belgium,Steenokkerzeel,44,Good,1,Good,27,Good,4,Good,44,Satisfactory,50.9189,4.5083,15,Good
Belgium,Stekene,39,Good,1,Good,30,Good,3,Good,39,Satisfactory,51.2,4.0333,16,Good
Belgium,Herstal,40,Good,1,Good,21,Good,5,Good,40,Satisfactory,50.6667,5.6333,15,Good
Belgium,Vosselaar,41,Good,1,Good,27,Good,6,Good,41,Satisfactory,51.3167,4.8833,16,Good
Belgium,Ans,37,Good,1,Good,22,Good,4,Good,37,Satisfactory,50.6625,5.52,16,Good
Belgium,Aywaille,31,Good,1,Good,24,Good,3,Good,31,Satisfactory,50.4733,5.6739,14,Good
Belgium,Wuustwezel,34,Good,0,Good,29,Good,3,Good,34,Satisfactory,51.3833,4.6,15,Good
Belgium,Kasterlee,31,Good,0,Good,29,Good,2,Good,31,Satisfactory,51.25,4.95,17,Good
Belgium,Kortrijk,44,Good,1,Good,38,Good,1,Good,44,Satisfactory,50.8333,3.2667,15,Good
Belgium,Geel,59,Moderate,1,Good,22,Good,8,Good,59,Satisfactory,51.1667,5,17,Good
Belgium,Vilvoorde,44,Good,1,Good,27,Good,4,Good,44,Satisfactory,50.9281,4.4245,18,Good
Belgium,Veurne,31,Good,0,Good,31,Good,1,Good,30,Satisfactory,51.0722,2.6622,17,Good
Belgium,Wingene,40,Good,1,Good,32,Good,3,Good,40,Satisfactory,51.05,3.2667,15,Good
Belgium,Tongeren,46,Good,1,Good,24,Good,4,Good,46,Satisfactory,50.7794,5.4631,9,Good
Belgium,Opwijk,43,Good,1,Good,28,Good,4,Good,43,Satisfactory,50.9667,4.1833,16,Good
Belgium,Waremme,36,Good,1,Good,24,Good,4,Good,36,Satisfactory,50.6975,5.2556,14,Good
Belgium,Blankenberge,33,Good,0,Good,33,Good,1,Good,32,Satisfactory,51.3,3.1167,16,Good
Belgium,Chaudfontaine,34,Good,1,Good,32,Good,2,Good,34,Satisfactory,50.5833,5.6333,15,Good
Belgium,Neerpelt,37,Good,1,Good,30,Good,3,Good,37,Satisfactory,51.2333,5.4333,17,Good
Belgium,Bonheiden,42,Good,1,Good,28,Good,4,Good,42,Satisfactory,51.0333,4.5333,16,Good
Belgium,Aartselaar,41,Good,1,Good,29,Good,4,Good,41,Satisfactory,51.1333,4.3833,13,Good
Belgium,Bastogne,51,Moderate,1,Good,24,Good,4,Good,51,Satisfactory,50.0042,5.72,16,Good
Belgium,Esneux,43,Good,1,Good,26,Good,4,Good,43,Satisfactory,50.5333,5.5667,17,Good
Belgium,Kampenhout,52,Moderate,1,Good,37,Good,2,Good,52,Satisfactory,50.9413,4.5496,17,Good
Belgium,Deerlijk,44,Good,1,Good,38,Good,1,Good,44,Satisfactory,50.8533,3.3533,18,Good
Belgium,Boussu,55,Moderate,1,Good,42,Good,1,Good,55,Satisfactory,50.4331,3.7961,14,Good
Belgium,Zandhoven,47,Good,1,Good,38,Good,1,Good,47,Satisfactory,51.2167,4.65,9,Good
Belgium,Ternat,44,Good,1,Good,27,Good,4,Good,44,Satisfactory,50.8667,4.1833,14,Good
Belgium,Kinrooi,42,Good,1,Good,31,Good,3,Good,42,Satisfactory,51.145,5.7403,13,Good
Belgium,Nazareth,46,Good,1,Good,37,Good,1,Good,46,Satisfactory,32.7019,35.3033,10,Good
Belgium,Zedelgem,33,Good,0,Good,31,Good,1,Good,33,Satisfactory,51.1431,3.1361,17,Good
Belgium,Zulte,36,Good,0,Good,29,Good,2,Good,36,Satisfactory,50.9167,3.4333,18,Good
Belgium,Laarne,41,Good,1,Good,27,Good,5,Good,41,Satisfactory,51.0167,3.85,15,Good
Belgium,Florennes,41,Good,1,Good,23,Good,4,Good,41,Satisfactory,50.2514,4.6044,18,Good
Belgium,Dour,39,Good,1,Good,23,Good,4,Good,39,Satisfactory,50.3979,3.7807,41,Good
Belgium,Nazareth,46,Good,1,Good,37,Good,1,Good,46,Satisfactory,8.5562,77.971,14,Good
Belgium,Brasschaat,38,Good,1,Good,30,Good,3,Good,38,Satisfactory,51.2931,4.4894,17,Good
Belgium,Mechelen,51,Moderate,1,Good,37,Good,2,Good,51,Satisfactory,51.0278,4.4806,18,Good
Belgium,Soignies,49,Good,1,Good,24,Good,5,Good,49,Satisfactory,50.5667,4.0667,14,Good
Belgium,Hoogstraten,29,Good,1,Good,29,Good,3,Good,29,Good,51.4,4.7667,16,Good
Belgium,Jodoigne,37,Good,1,Good,30,Good,3,Good,37,Satisfactory,50.7167,4.8667,15,Good
Belgium,Tessenderlo,36,Good,1,Good,24,Good,4,Good,36,Satisfactory,51.0697,5.0897,10,Good
Belgium,Kortemark,39,Good,1,Good,25,Good,3,Good,39,Satisfactory,51.0286,3.0444,18,Good
Belgium,Gent,63,Moderate,1,Good,34,Good,5,Good,63,Moderate,51.0536,3.7253,15,Good
Belgium,Couvin,62,Moderate,1,Good,37,Good,3,Good,62,Moderate,50.05,4.4833,9,Good
Belgium,Aalst,51,Moderate,1,Good,38,Good,2,Good,51,Satisfactory,50.9383,4.0392,14,Good
Belgium,Nijlen,38,Good,1,Good,29,Good,3,Good,38,Satisfactory,51.1667,4.65,14,Good
Belgium,Leopoldsburg,51,Moderate,1,Good,38,Good,1,Good,51,Satisfactory,51.1169,5.2558,15,Good
Belgium,Ravels,30,Good,1,Good,30,Good,3,Good,30,Satisfactory,51.3667,5,18,Good
Belgium,Zottegem,36,Good,1,Good,26,Good,3,Good,36,Satisfactory,50.8667,3.8,14,Good
Belgium,Rijkevorsel,32,Good,1,Good,32,Good,2,Good,29,Good,51.35,4.7667,18,Good
Belgium,Binche,57,Moderate,1,Good,25,Good,5,Good,57,Satisfactory,50.4,4.1667,15,Good
Belgium,Tremelo,37,Good,1,Good,30,Good,3,Good,37,Satisfactory,50.9911,4.7044,18,Good
Belgium,Lochristi,39,Good,1,Good,31,Good,3,Good,39,Satisfactory,51.1,3.8333,17,Good
Belgium,Seneffe,50,Good,1,Good,23,Good,5,Good,50,Satisfactory,50.5333,4.25,9,Good
Belgium,Lebbeke,51,Moderate,1,Good,38,Good,2,Good,51,Satisfactory,51,4.1167,14,Good
Belgium,Zonhoven,37,Good,1,Good,22,Good,4,Good,37,Satisfactory,50.9853,5.3647,14,Good
Belgium,Beringen,46,Good,1,Good,26,Good,5,Good,46,Satisfactory,51.0333,5.2167,15,Good
Belgium,Beerse,30,Good,0,Good,30,Good,2,Good,30,Satisfactory,51.3167,4.8667,17,Good
Belgium,Rixensart,54,Moderate,1,Good,38,Good,1,Good,54,Satisfactory,50.7167,4.5333,18,Good
Belgium,Middelkerke,38,Good,1,Good,33,Good,2,Good,38,Satisfactory,51.1847,2.8192,18,Good
Belgium,Colfontaine,35,Good,1,Good,27,Good,2,Good,35,Satisfactory,50.4057,3.8514,9,Good
Belgium,Denderleeuw,44,Good,1,Good,27,Good,4,Good,44,Satisfactory,50.8833,4.0833,18,Good
Belgium,Grimbergen,43,Good,1,Good,31,Good,3,Good,43,Satisfactory,50.9333,4.3833,18,Good
Belgium,Enghien,51,Moderate,1,Good,26,Good,5,Good,51,Satisfactory,50.7,4.0333,16,Good
Belgium,Kapellen,32,Good,1,Good,29,Good,4,Good,32,Satisfactory,51.3167,4.4333,18,Good
Belgium,Zele,36,Good,1,Good,27,Good,3,Good,36,Satisfactory,51.0667,4.0333,16,Good
Belgium,Amay,50,Good,1,Good,22,Good,5,Good,50,Satisfactory,50.5478,5.3192,15,Good
Belgium,Putte,51,Moderate,1,Good,37,Good,1,Good,51,Satisfactory,51.05,4.6333,18,Good
Belgium,Frameries,55,Moderate,1,Good,42,Good,1,Good,55,Satisfactory,50.4088,3.8906,16,Good
Belgium,Namur,35,Good,1,Good,30,Good,3,Good,35,Satisfactory,50.4667,4.8667,18,Good
Belgium,Eeklo,36,Good,1,Good,32,Good,3,Good,36,Satisfactory,51.1858,3.5639,17,Good
Belgium,Charleroi,58,Moderate,1,Good,25,Good,5,Good,58,Satisfactory,50.4,4.4333,14,Good
Belgium,Mortsel,40,Good,1,Good,29,Good,3,Good,40,Satisfactory,51.1667,4.4667,14,Good
Belgium,Schoten,34,Good,1,Good,29,Good,4,Good,34,Satisfactory,51.25,4.5,16,Good
Belgium,Sprimont,63,Moderate,1,Good,35,Good,4,Good,63,Moderate,50.5,5.6667,17,Good
Belgium,Manage,35,Good,1,Good,28,Good,2,Good,35,Satisfactory,50.5,4.2333,17,Good
Belgium,Genappe,54,Moderate,1,Good,40,Good,1,Good,54,Satisfactory,50.6,4.45,18,Good
Belgium,Lokeren,31,Good,0,Good,31,Good,2,Good,31,Satisfactory,51.1,3.9833,17,Good
Belgium,Zemst,65,Moderate,1,Good,27,Good,8,Good,65,Moderate,50.9722,4.4222,17,Good
Belgium,Zaventem,58,Moderate,1,Good,29,Good,6,Good,58,Satisfactory,50.8833,4.4667,16,Good
Belgium,Rochefort,32,Good,1,Good,24,Good,3,Good,32,Satisfactory,50.1667,5.2167,14,Good
Belgium,Mol,39,Good,1,Good,31,Good,3,Good,39,Satisfactory,51.1833,5.1167,9,Good
Belgium,Zonnebeke,40,Good,1,Good,38,Good,2,Good,40,Satisfactory,50.8667,2.9833,10,Good
Belgium,Izegem,37,Good,1,Good,24,Good,3,Good,37,Satisfactory,50.9172,3.215,15,Good
Belgium,Olen,38,Good,1,Good,30,Good,3,Good,38,Satisfactory,51.15,4.85,16,Good
Belgium,Boom,41,Good,1,Good,28,Good,4,Good,41,Satisfactory,51.0833,4.3667,18,Good
Belgium,Wetteren,64,Moderate,1,Good,32,Good,6,Good,64,Moderate,51,3.8833,17,Good
Belgium,Tielt,51,Moderate,1,Good,36,Good,3,Good,51,Satisfactory,50.9989,3.3258,18,Good
Belgium,Merelbeke,49,Good,1,Good,37,Good,2,Good,49,Satisfactory,51,3.75,17,Good
Belgium,Keerbergen,39,Good,1,Good,23,Good,5,Good,39,Satisfactory,51.0031,4.6311,17,Good
Belgium,Ingelmunster,40,Good,1,Good,38,Good,1,Good,40,Satisfactory,50.9208,3.2533,17,Good
Belgium,Mettet,63,Moderate,1,Good,31,Good,5,Good,63,Moderate,50.3192,4.6569,17,Good
Belgium,Courcelles,57,Moderate,1,Good,25,Good,5,Good,57,Satisfactory,50.4578,4.3756,14,Good
Belgium,Riemst,39,Good,1,Good,31,Good,3,Good,39,Satisfactory,50.8089,5.6019,17,Good
Belgium,Harelbeke,36,Good,0,Good,29,Good,2,Good,36,Satisfactory,50.8567,3.3131,15,Good
Belgium,Temse,42,Good,1,Good,24,Good,5,Good,42,Satisfactory,51.1167,4.2,16,Good
Belgium,Londerzeel,34,Good,0,Good,29,Good,3,Good,34,Satisfactory,51,4.3,9,Good
Belgium,Liedekerke,52,Moderate,1,Good,38,Good,2,Good,52,Satisfactory,50.8667,4.0833,15,Good
Belgium,Waasmunster,49,Good,1,Good,37,Good,2,Good,49,Satisfactory,51.1097,4.0847,15,Good
Belgium,Bilzen,50,Good,1,Good,30,Good,3,Good,50,Satisfactory,50.8667,5.5167,17,Good
Belgium,Machelen,58,Moderate,1,Good,30,Good,6,Good,58,Satisfactory,50.9103,4.4367,15,Good
Belgium,Herent,53,Moderate,1,Good,37,Good,1,Good,53,Satisfactory,50.9081,4.6706,16,Good
Belgium,Puurs,64,Moderate,1,Good,29,Good,7,Good,64,Moderate,51.0761,4.2803,9,Good
Belgium,Wervik,38,Good,1,Good,23,Good,3,Good,38,Satisfactory,50.7797,3.04,17,Good
Belgium,Oudenaarde,36,Good,1,Good,25,Good,3,Good,36,Satisfactory,50.85,3.6,15,Good
Belgium,Spa,30,Good,0,Good,25,Good,2,Good,30,Satisfactory,50.4925,5.8642,9,Good
Belgium,Ninove,66,Moderate,1,Good,30,Good,6,Good,66,Moderate,50.8333,4.0167,13,Good
Belgium,Monschau,32,Good,1,Good,32,Good,2,Good,31,Satisfactory,50.56,6.2564,16,Good
Belgium,Landen,56,Moderate,1,Good,39,Good,1,Good,56,Satisfactory,50.7547,5.0814,18,Good
Belgium,Ath,64,Moderate,1,Good,31,Good,5,Good,64,Moderate,50.6167,3.7667,17,Good
Belgium,Zwevegem,37,Good,1,Good,25,Good,3,Good,37,Satisfactory,50.8,3.3333,14,Good
Belgium,Diepenbeek,40,Good,1,Good,21,Good,5,Good,40,Satisfactory,50.9072,5.4175,17,Good
Belgium,Deinze,36,Good,1,Good,25,Good,3,Good,36,Satisfactory,50.9833,3.5333,14,Good
Belgium,Alken,35,Good,1,Good,25,Good,3,Good,35,Satisfactory,50.8761,5.3078,15,Good
Belgium,Haacht,52,Moderate,1,Good,37,Good,1,Good,52,Satisfactory,50.9767,4.6372,8,Good
Belgium,Rochefort,32,Good,1,Good,24,Good,3,Good,32,Satisfactory,45.9421,-0.9588,18,Good
Belgium,Meise,34,Good,0,Good,28,Good,3,Good,34,Satisfactory,50.9333,4.3333,17,Good
Belgium,Walcourt,56,Moderate,1,Good,45,Good,1,Good,56,Satisfactory,50.25,4.4167,149,Moderate
Belize,Dangriga,22,Good,1,Good,22,Good,0,Good,19,Good,16.9667,-88.2167,7,Good
Belize,Orange Walk,58,Moderate,1,Good,26,Good,0,Good,58,Satisfactory,18.075,-88.5583,149,Moderate
Belize,Belmopan,59,Moderate,1,Good,24,Good,0,Good,59,Satisfactory,17.2514,-88.7669,12,Good
Benin,Natitingou,51,Moderate,1,Good,27,Good,0,Good,51,Satisfactory,10.3,1.3667,85,Satisfactory
Benin,Abomey,80,Moderate,1,Good,21,Good,1,Good,80,Moderate,7.1856,1.9881,85,Satisfactory
Benin,Bassila,50,Good,2,Good,14,Good,0,Good,50,Satisfactory,9.0167,1.6667,85,Satisfactory
Benin,Bohicon,77,Moderate,3,Good,14,Good,2,Good,77,Moderate,7.2,2.0667,12,Good
Benin,Banikoara,30,Good,2,Good,12,Good,0,Good,30,Satisfactory,11.3,2.4333,85,Satisfactory
Benin,Cotonou,71,Moderate,1,Good,24,Good,0,Good,71,Moderate,6.3667,2.4333,85,Satisfactory
Benin,Ouidah,100,Moderate,2,Good,18,Good,2,Good,100,Poor,6.3667,2.0833,85,Satisfactory
Benin,Dogbo,101,Unhealthy for Sensitive Groups,3,Good,18,Good,2,Good,101,Poor,6.8167,1.7833,85,Satisfactory
Benin,Parakou,60,Moderate,2,Good,18,Good,0,Good,60,Moderate,9.35,2.6167,85,Satisfactory
Benin,Lokossa,47,Good,1,Good,28,Good,0,Good,47,Satisfactory,6.6333,1.7167,85,Satisfactory
Benin,Allada,79,Moderate,2,Good,18,Good,2,Good,79,Moderate,6.65,2.15,85,Satisfactory
Benin,Djougou,54,Moderate,1,Good,29,Good,0,Good,54,Satisfactory,9.7,1.6667,85,Satisfactory
Benin,Tchaourou,63,Moderate,1,Good,34,Good,0,Good,63,Moderate,8.8833,2.6,12,Good
Benin,Malanville,34,Good,1,Good,18,Good,1,Good,34,Satisfactory,11.8667,3.3833,85,Satisfactory
Benin,Nikki,41,Good,1,Good,21,Good,0,Good,41,Satisfactory,9.9333,3.2083,85,Satisfactory
Benin,Savalou,54,Moderate,1,Good,30,Good,0,Good,54,Satisfactory,7.9333,1.9667,24,Good
Bhutan,Punakha,21,Good,1,Good,15,Good,0,Good,21,Good,27.5833,89.8583,46,Good
Bhutan,Samdrup Jongkhar,31,Good,1,Good,27,Good,0,Good,31,Satisfactory,26.8,91.505,39,Good
Bolivia (Plurinational State of),Patacamaya,20,Good,0,Good,7,Good,1,Good,20,Good,-17.2333,-67.9167,59,Satisfactory
Bolivia (Plurinational State of),San Ignacio,43,Good,0,Good,13,Good,0,Good,43,Satisfactory,-26.8867,-57.0283,17,Good
Bolivia (Plurinational State of),Tarija,15,Good,0,Good,1,Good,1,Good,15,Good,-21.5333,-64.7333,45,Good
Bolivia (Plurinational State of),San Ignacio,43,Good,0,Good,13,Good,0,Good,43,Satisfactory,14.3333,-89.1833,16,Good
Bolivia (Plurinational State of),San Ignacio,43,Good,0,Good,13,Good,0,Good,43,Satisfactory,9.7997,-84.163,59,Satisfactory
Bolivia (Plurinational State of),Puerto Quijarro,38,Good,0,Good,15,Good,0,Good,38,Satisfactory,-17.7796,-57.77,39,Good
Bolivia (Plurinational State of),Oruro,12,Good,0,Good,9,Good,0,Good,12,Good,-17.9667,-67.1167,39,Good
Bolivia (Plurinational State of),Warnes,14,Good,1,Good,5,Good,0,Good,14,Good,-17.5167,-63.1667,17,Good
Bolivia (Plurinational State of),Uyuni,12,Good,0,Good,10,Good,0,Good,12,Good,-20.4667,-66.8167,39,Good
Bolivia (Plurinational State of),San Borja,27,Good,1,Good,5,Good,0,Good,27,Good,-14.8583,-66.7475,39,Good
Bolivia (Plurinational State of),Cotoca,16,Good,1,Good,9,Good,0,Good,16,Good,-17.7536,-62.9967,45,Good
Bolivia (Plurinational State of),San Ignacio,43,Good,0,Good,13,Good,0,Good,43,Satisfactory,14.65,-87.0333,6,Good
Bolivia (Plurinational State of),San Ignacio,43,Good,0,Good,13,Good,0,Good,43,Satisfactory,-5.1456,-79.0017,17,Good
Bolivia (Plurinational State of),Villamontes,12,Good,0,Good,10,Good,0,Good,12,Good,-21.2608,-63.4761,39,Good
Bolivia (Plurinational State of),Riberalta,35,Good,1,Good,3,Good,0,Good,35,Satisfactory,-11.0128,-66.0572,39,Good
Bolivia (Plurinational State of),Oruro,12,Good,0,Good,9,Good,0,Good,12,Good,-17.9799,-67.13,17,Good
Bolivia (Plurinational State of),Tupiza,14,Good,0,Good,14,Good,0,Good,10,Good,-21.4375,-65.7158,39,Good
Bolivia (Plurinational State of),Caranavi,17,Good,1,Good,3,Good,0,Good,17,Good,-15.8333,-67.5667,39,Good
Bolivia (Plurinational State of),Llallagua,12,Good,0,Good,12,Good,0,Good,11,Good,-18.4167,-66.5833,39,Good
Bolivia (Plurinational State of),Huanuni,14,Good,0,Good,14,Good,0,Good,9,Good,-18.29,-66.8383,39,Good
Bolivia (Plurinational State of),Rurrenabaque,29,Good,1,Good,9,Good,0,Good,29,Good,-14.4422,-67.5283,39,Good
Bolivia (Plurinational State of),Mineros,27,Good,0,Good,11,Good,0,Good,27,Good,-17.1178,-63.2331,17,Good
Bolivia (Plurinational State of),Bermejo,54,Moderate,1,Good,8,Good,1,Good,54,Satisfactory,-22.7322,-64.3425,16,Good
Bolivia (Plurinational State of),Sucre,14,Good,0,Good,6,Good,0,Good,14,Good,2.0333,-76.9167,39,Good
Bolivia (Plurinational State of),Portachuelo,67,Moderate,1,Good,15,Good,0,Good,67,Moderate,-17.3572,-63.3906,8,Good
Bolivia (Plurinational State of),Sucre,14,Good,0,Good,6,Good,0,Good,14,Good,5.923,-73.795,149,Moderate
Bolivia (Plurinational State of),San Ignacio,43,Good,0,Good,13,Good,0,Good,43,Satisfactory,17.1588,-89.0696,39,Good
Bolivia (Plurinational State of),Montero,27,Good,0,Good,20,Good,0,Good,27,Good,-17.3422,-63.2558,10,Good
Bolivia (Plurinational State of),Sucre,14,Good,0,Good,6,Good,0,Good,14,Good,8.8139,-74.7253,6,Good
Bolivia (Plurinational State of),Sucre,14,Good,0,Good,6,Good,0,Good,14,Good,-1.26,-80.44,17,Good
Bolivia (Plurinational State of),Sucre,14,Good,0,Good,6,Good,0,Good,14,Good,-19.0475,-65.26,39,Good
Bolivia (Plurinational State of),Punata,34,Good,1,Good,4,Good,1,Good,34,Satisfactory,-17.55,-65.8333,17,Good
Bolivia (Plurinational State of),Camiri,12,Good,1,Good,1,Good,0,Good,12,Good,-20.0386,-63.5183,17,Good
Bolivia (Plurinational State of),Camiri,12,Good,1,Good,1,Good,0,Good,12,Good,-20.1,-63.5333,39,Good
Bolivia (Plurinational State of),Cochabamba,32,Good,1,Good,2,Good,2,Good,32,Satisfactory,-17.3833,-66.1667,43,Good
Bosnia and Herzegovina,Sarajevo,68,Moderate,1,Good,31,Good,0,Good,68,Moderate,43.8564,18.4131,42,Good
Bosnia and Herzegovina,Tuzla,62,Moderate,1,Good,34,Good,0,Good,62,Moderate,44.5381,18.6761,44,Good
Bosnia and Herzegovina,Zenica,50,Good,1,Good,31,Good,0,Good,50,Satisfactory,44.2017,17.9039,29,Good
Bosnia and Herzegovina,Banja Luka,54,Moderate,1,Good,32,Good,0,Good,54,Satisfactory,44.7725,17.1925,14,Good
Bosnia and Herzegovina,Tuzla,62,Moderate,1,Good,34,Good,0,Good,62,Moderate,40.8161,29.3006,42,Good
Bosnia and Herzegovina,Bijeljina,76,Moderate,1,Good,35,Good,2,Good,76,Moderate,44.75,19.2167,20,Good
Bosnia and Herzegovina,Sanski Most,57,Moderate,1,Good,32,Good,0,Good,57,Satisfactory,44.7667,16.6667,34,Good
Bosnia and Herzegovina,Doboj,74,Moderate,1,Good,34,Good,1,Good,74,Moderate,44.7333,18.1333,28,Good
Bosnia and Herzegovina,Bosanska Krupa,55,Moderate,1,Good,43,Good,0,Good,55,Satisfactory,44.8833,16.15,20,Good
Bosnia and Herzegovina,Prijedor,59,Moderate,1,Good,39,Good,0,Good,59,Satisfactory,44.9667,16.7,29,Good
Bosnia and Herzegovina,Livno,96,Moderate,1,Good,41,Good,0,Good,96,Poor,43.8269,17.0081,44,Good
Bosnia and Herzegovina,Novi Travnik,47,Good,1,Good,33,Good,0,Good,47,Satisfactory,44.1748,17.6634,29,Good
Bosnia and Herzegovina,Bugojno,28,Good,1,Good,28,Good,0,Good,18,Good,44.0572,17.4508,28,Good
Bosnia and Herzegovina,Trebinje,71,Moderate,1,Good,41,Good,0,Good,71,Moderate,42.7089,18.3217,37,Good
Bosnia and Herzegovina,Mostar,58,Moderate,1,Good,39,Good,0,Good,58,Satisfactory,43.3436,17.8075,40,Good
Bosnia and Herzegovina,Lukavac,63,Moderate,1,Good,50,Good,0,Good,63,Moderate,44.55,18.5167,45,Good
Botswana,Gaborone,71,Moderate,1,Good,9,Good,2,Good,71,Moderate,-24.6581,25.9122,40,Good
Botswana,Serowe,49,Good,1,Good,23,Good,0,Good,49,Satisfactory,-22.3833,26.7167,45,Good
Botswana,Ramotswa,69,Moderate,2,Good,15,Good,1,Good,69,Moderate,-24.8667,25.8167,45,Good
Botswana,Kanye,59,Moderate,1,Good,20,Good,1,Good,59,Satisfactory,-24.9833,25.35,45,Good
Botswana,Thamaga,59,Moderate,1,Good,16,Good,0,Good,59,Satisfactory,-24.7167,25.5333,45,Good
Botswana,Lobatse,68,Moderate,2,Good,18,Good,3,Good,68,Moderate,-25.2167,25.6667,40,Good
Botswana,Letlhakane,29,Good,0,Good,29,Good,0,Good,22,Good,-21.4167,25.5833,45,Good
Botswana,Ghanzi,15,Good,0,Good,15,Good,0,Good,11,Good,-21.7,21.65,45,Good
Botswana,Mogoditshane,32,Good,1,Good,17,Good,0,Good,32,Satisfactory,-24.6333,25.8667,40,Good
Botswana,Mahalapye,39,Good,1,Good,17,Good,0,Good,39,Satisfactory,-23.1,26.8,45,Good
Botswana,Molepolole,21,Good,0,Good,18,Good,0,Good,21,Good,-24.4067,25.495,40,Good
Botswana,Francistown,42,Good,1,Good,29,Good,0,Good,42,Satisfactory,-21.1736,27.5125,45,Good
Botswana,Gabane,31,Good,1,Good,18,Good,0,Good,31,Satisfactory,-24.6667,25.7833,40,Good
Botswana,Maun,30,Good,0,Good,14,Good,0,Good,30,Satisfactory,-19.9833,23.4167,40,Good
Botswana,Palapye,79,Moderate,2,Good,14,Good,1,Good,79,Moderate,-22.55,27.1333,40,Good
Botswana,Bobonong,31,Good,0,Good,31,Good,0,Good,24,Good,-21.9704,28.4233,35,Good
Botswana,Mochudi,39,Good,1,Good,31,Good,0,Good,39,Satisfactory,-24.4167,26.15,6,Good
Brazil,Candelaria,37,Good,1,Good,12,Good,1,Good,37,Satisfactory,28.3547,-16.371,71,Satisfactory
Brazil,Itatinga,67,Moderate,1,Good,21,Good,1,Good,67,Moderate,-23.1017,-48.6158,51,Satisfactory
Brazil,Registro,53,Moderate,1,Good,9,Good,2,Good,53,Satisfactory,-24.4878,-47.8439,17,Good
Brazil,Candelaria,37,Good,1,Good,12,Good,1,Good,37,Satisfactory,15.6333,119.9333,9,Good
Brazil,Candelaria,37,Good,1,Good,12,Good,1,Good,37,Satisfactory,3.4,-76.3833,12,Good
Brazil,Ecoporanga,38,Good,1,Good,16,Good,1,Good,38,Satisfactory,-18.3728,-40.8308,12,Good
Brazil,Camamu,17,Good,0,Good,14,Good,0,Good,17,Good,-13.945,-39.1039,3,Good
Brazil,Bela Cruz,45,Good,0,Good,22,Good,0,Good,45,Satisfactory,-3.0508,-40.1678,71,Satisfactory
Brazil,Encantado,24,Good,1,Good,13,Good,2,Good,24,Good,-29.2358,-51.87,43,Good
Brazil,Cardoso,56,Moderate,1,Good,8,Good,1,Good,56,Satisfactory,-20.0819,-49.9139,7,Good
Brazil,Candelaria,37,Good,1,Good,12,Good,1,Good,37,Satisfactory,18.1835,-91.0463,55,Satisfactory
Brazil,Leme,67,Moderate,2,Good,9,Good,5,Good,67,Moderate,-22.1861,-47.3906,3,Good
Brazil,Itaituba,26,Good,1,Good,4,Good,0,Good,26,Good,-4.2758,-55.9839,12,Good
Brazil,Pesqueira,17,Good,0,Good,16,Good,0,Good,17,Good,-8.3617,-36.6947,43,Good
Brazil,Frutal,41,Good,1,Good,5,Good,1,Good,41,Satisfactory,-20.025,-48.9408,71,Satisfactory
Brazil,Correia Pinto,18,Good,0,Good,18,Good,0,Good,14,Good,-27.585,-50.3608,53,Satisfactory
Brazil,Taquarituba,41,Good,1,Good,20,Good,0,Good,41,Satisfactory,-23.5328,-49.2439,51,Satisfactory
Brazil,Urussanga,43,Good,1,Good,13,Good,4,Good,43,Satisfactory,-28.5178,-49.3208,12,Good
Brazil,Carpina,44,Good,1,Good,9,Good,5,Good,44,Satisfactory,-7.85,-35.25,21,Good
Brazil,Betim,91,Moderate,2,Good,4,Good,9,Good,91,Poor,-19.9678,-44.1978,12,Good
Brazil,Serra Talhada,26,Good,0,Good,15,Good,0,Good,26,Good,-7.9858,-38.2958,45,Good
Brazil,Candelaria,37,Good,1,Good,12,Good,1,Good,37,Satisfactory,13.75,-88.95,10,Good
Brazil,Candelaria,37,Good,1,Good,12,Good,1,Good,37,Satisfactory,10.4592,-74.8806,16,Good
Brazil,Candelaria,37,Good,1,Good,12,Good,1,Good,37,Satisfactory,18.4042,-66.2175,58,Satisfactory
Brazil,Charqueada,58,Moderate,2,Good,5,Good,5,Good,58,Satisfactory,-22.5097,-47.7781,59,Satisfactory
Brazil,Realeza,37,Good,1,Good,14,Good,0,Good,37,Satisfactory,-25.7669,-53.5269,21,Good
Brazil,Paracambi,163,Unhealthy,7,Good,0,Good,20,Good,163,Very Poor,-22.6108,-43.7089,43,Good
Brazil,Ituiutaba,25,Good,1,Good,10,Good,1,Good,25,Good,-18.9667,-49.4667,12,Good
Brazil,Paratinga,19,Good,0,Good,12,Good,1,Good,19,Good,-12.6908,-43.1839,59,Satisfactory
Brazil,Passo Fundo,19,Good,0,Good,19,Good,0,Good,13,Good,-28.25,-52.4,5,Good
Brazil,Candelaria,37,Good,1,Good,12,Good,1,Good,37,Satisfactory,22.7439,-82.9581,59,Satisfactory
Brazil,Arapongas,37,Good,1,Good,14,Good,2,Good,37,Satisfactory,-23.4189,-51.4239,51,Satisfactory
Brazil,Buritama,38,Good,1,Good,11,Good,1,Good,38,Satisfactory,-21.0667,-50.1475,12,Good
Brazil,Esplanada,15,Good,0,Good,15,Good,1,Good,15,Good,-11.7958,-37.945,12,Good
Brazil,Guaiuba,34,Good,0,Good,21,Good,1,Good,34,Satisfactory,-4.04,-38.6369,57,Satisfactory
Brazil,Buritizeiro,20,Good,1,Good,14,Good,0,Good,20,Good,-17.3508,-44.9619,12,Good
Brazil,Montes Claros,52,Moderate,1,Good,1,Good,4,Good,52,Satisfactory,-16.7306,-43.8639,12,Good
Brazil,Farias Brito,24,Good,0,Good,12,Good,1,Good,24,Good,-6.9308,-39.5658,71,Satisfactory
Brazil,Campos Novos,18,Good,0,Good,13,Good,1,Good,18,Good,-27.4019,-51.225,12,Good
Brazil,Alegre,40,Good,1,Good,15,Good,1,Good,40,Satisfactory,-20.7639,-41.5328,59,Satisfactory
Brazil,Capanema,22,Good,0,Good,19,Good,0,Good,22,Good,-25.6719,-53.8089,4,Good
Brazil,Rio Claro,151,Unhealthy,4,Good,4,Good,10,Good,151,Very Poor,10.3042,-61.1708,50,Good
Brazil,Araraquara,63,Moderate,1,Good,23,Good,1,Good,63,Moderate,-21.7939,-48.1758,12,Good
Brazil,Castelo,33,Good,1,Good,11,Good,1,Good,33,Satisfactory,-20.6039,-41.185,12,Good
Brazil,Floresta,23,Good,0,Good,13,Good,0,Good,23,Good,-8.6008,-38.5678,58,Satisfactory
Brazil,Rio Claro,151,Unhealthy,4,Good,4,Good,10,Good,151,Very Poor,-22.4108,-47.5608,59,Satisfactory
Brazil,Xaxim,26,Good,1,Good,11,Good,1,Good,26,Good,-26.9619,-52.535,71,Satisfactory
Brazil,Ituporanga,118,Unhealthy for Sensitive Groups,5,Good,10,Good,2,Good,118,Poor,-27.4139,-49.6008,12,Good
Brazil,Tamboril,34,Good,1,Good,5,Good,2,Good,34,Satisfactory,-4.8319,-40.3208,16,Good
Brazil,Tamboril,34,Good,1,Good,5,Good,2,Good,34,Satisfactory,19.48,-70.6,12,Good
Brazil,Alhandra,25,Good,0,Good,23,Good,1,Good,25,Good,-7.3504,-34.9284,3,Good
Brazil,Batalha,22,Good,0,Good,22,Good,0,Good,14,Good,-4.0239,-42.0778,67,Satisfactory
Brazil,Guarulhos,217,Very Unhealthy,13,Good,0,Good,39,Good,217,Very Poor,-23.4628,-46.5328,12,Good
Brazil,Campos,55,Moderate,1,Good,16,Good,3,Good,55,Satisfactory,-21.7539,-41.3239,12,Good
Brazil,Jequitinhonha,25,Good,0,Good,7,Good,1,Good,25,Good,-16.4339,-41.0028,12,Good
Brazil,Tucano,20,Good,0,Good,14,Good,0,Good,20,Good,-10.9628,-38.7869,43,Good
Brazil,Iturama,23,Good,1,Good,5,Good,1,Good,23,Good,-19.7278,-50.1958,17,Good
Brazil,Candelaria,37,Good,1,Good,12,Good,1,Good,37,Satisfactory,13.9311,121.4233,21,Good
Brazil,Itabirito,97,Moderate,2,Good,4,Good,7,Good,97,Poor,-20.2528,-43.8008,51,Satisfactory
Brazil,Irati,38,Good,1,Good,8,Good,2,Good,38,Satisfactory,-25.4669,-50.6508,21,Good
Brazil,Paraopeba,50,Good,1,Good,9,Good,3,Good,50,Satisfactory,-19.2739,-44.4039,13,Good
Brazil,Cacequi,24,Good,0,Good,24,Good,0,Good,9,Good,-29.8839,-54.825,21,Good
Brazil,Rio Claro,151,Unhealthy,4,Good,4,Good,10,Good,151,Very Poor,-22.7228,-44.1358,51,Satisfactory
Brazil,Mineiros,26,Good,1,Good,8,Good,0,Good,26,Good,-17.5689,-52.5508,3,Good
Brazil,Granja,30,Good,0,Good,10,Good,1,Good,30,Satisfactory,-3.12,-40.8258,71,Satisfactory
Brazil,Angatuba,18,Good,1,Good,8,Good,1,Good,18,Good,-23.4903,-48.4128,3,Good
Brazil,Manaus,40,Good,1,Good,4,Good,1,Good,40,Satisfactory,-3.1,-60.0167,12,Good
Brazil,Buerarema,43,Good,1,Good,7,Good,3,Good,43,Satisfactory,-14.9589,-39.3,12,Good
Brazil,Jeremoabo,15,Good,0,Good,15,Good,0,Good,13,Good,-10.0669,-38.35,12,Good
Brazil,Aracoiaba,31,Good,0,Good,11,Good,1,Good,31,Satisfactory,-4.3708,-38.8139,12,Good
Brazil,Floriano,14,Good,0,Good,14,Good,0,Good,13,Good,-6.7669,-43.0228,33,Good
Brazil,Extrema,78,Moderate,2,Good,11,Good,5,Good,78,Moderate,-22.855,-46.3178,51,Satisfactory
Brazil,Ourinhos,54,Moderate,1,Good,9,Good,1,Good,54,Satisfactory,-22.9744,-49.8719,59,Satisfactory
Brazil,Chopinzinho,37,Good,1,Good,5,Good,2,Good,37,Satisfactory,-25.8558,-52.5228,3,Good
Brazil,Uruburetama,40,Good,0,Good,17,Good,1,Good,40,Satisfactory,-3.625,-39.5078,59,Satisfactory
Brazil,Cruz Alta,20,Good,1,Good,9,Good,2,Good,20,Good,-28.6386,-53.6064,12,Good
Brazil,Cupira,37,Good,0,Good,9,Good,2,Good,37,Satisfactory,-8.6169,-35.95,71,Satisfactory
Brazil,Curitibanos,17,Good,0,Good,17,Good,0,Good,17,Good,-27.2828,-50.5839,71,Satisfactory
Brazil,Campo Largo,71,Moderate,1,Good,15,Good,2,Good,71,Moderate,-25.4589,-49.5278,43,Good
Brazil,Anicuns,49,Good,1,Good,5,Good,3,Good,49,Satisfactory,-16.4608,-49.9619,3,Good
Brazil,Teresina,27,Good,0,Good,12,Good,1,Good,27,Good,-5.0949,-42.8042,59,Satisfactory
Brazil,Pacaembu,29,Good,1,Good,11,Good,0,Good,29,Good,-21.5622,-51.2606,21,Good
Brazil,Aparecida,82,Moderate,3,Good,2,Good,8,Good,82,Moderate,-22.8472,-45.23,3,Good
Brazil,Altamira,39,Good,1,Good,2,Good,0,Good,39,Satisfactory,-3.2028,-52.2058,12,Good
Brazil,Natal,24,Good,0,Good,23,Good,0,Good,24,Good,-5.7833,-35.2,13,Good
Brazil,Altamira,39,Good,1,Good,2,Good,0,Good,39,Satisfactory,22.3375,-97.8694,13,Good
Brazil,Campo Largo,71,Moderate,1,Good,15,Good,2,Good,71,Moderate,-26.8,-60.8333,9,Good
Brazil,Coari,46,Good,1,Good,2,Good,0,Good,46,Satisfactory,-4.085,-63.1408,17,Good
Brazil,Santa Maria,24,Good,1,Good,13,Good,0,Good,24,Good,15.9808,120.7003,71,Satisfactory
Brazil,Rio Negrinho,41,Good,1,Good,10,Good,5,Good,41,Satisfactory,-26.2539,-49.5178,3,Good
Brazil,Chapadinha,56,Moderate,1,Good,9,Good,1,Good,56,Satisfactory,-3.7419,-43.36,59,Satisfactory
Brazil,Horizontina,20,Good,0,Good,20,Good,0,Good,15,Good,-27.6258,-54.3078,43,Good
Brazil,Trindade,23,Good,0,Good,15,Good,0,Good,23,Good,-16.6581,-49.4836,21,Good
Brazil,Lavras,44,Good,1,Good,10,Good,2,Good,44,Satisfactory,-21.245,-45,57,Satisfactory
Brazil,Pontal,131,Unhealthy for Sensitive Groups,4,Good,3,Good,8,Good,131,Very Poor,-21.0225,-48.0372,38,Good
Brazil,Monte Mor,156,Unhealthy,5,Good,1,Good,12,Good,156,Very Poor,-22.9467,-47.315,12,Good
Brazil,Messias,24,Good,0,Good,24,Good,0,Good,15,Good,-9.3828,-35.8419,21,Good
Brazil,Alfenas,42,Good,1,Good,8,Good,3,Good,42,Satisfactory,-21.4289,-45.9469,12,Good
Brazil,Extremoz,29,Good,0,Good,23,Good,1,Good,29,Good,-5.7058,-35.3069,59,Satisfactory
Brazil,Adamantina,39,Good,1,Good,14,Good,1,Good,39,Satisfactory,-21.6847,-51.0733,85,Satisfactory
Brazil,Trindade,23,Good,0,Good,15,Good,0,Good,23,Good,0.3,6.6833,12,Good
Brazil,Trindade,23,Good,0,Good,15,Good,0,Good,23,Good,-7.7619,-40.2678,56,Satisfactory
Brazil,Cajamar,78,Moderate,2,Good,3,Good,7,Good,78,Moderate,-23.3558,-46.8769,51,Satisfactory
Brazil,Guiratinga,25,Good,1,Good,6,Good,1,Good,25,Good,-16.3489,-53.7578,55,Satisfactory
Brazil,Una,18,Good,0,Good,14,Good,0,Good,18,Good,20.82,71.03,12,Good
Brazil,Una,18,Good,0,Good,14,Good,0,Good,18,Good,-15.2928,-39.075,12,Good
Brazil,Belo Jardim,26,Good,0,Good,15,Good,1,Good,26,Good,-8.3358,-36.4239,21,Good
Brazil,Sete Lagoas,119,Unhealthy for Sensitive Groups,4,Good,0,Good,8,Good,119,Poor,-19.4658,-44.2469,16,Good
Brazil,Altamira,39,Good,1,Good,2,Good,0,Good,39,Satisfactory,19.6667,-70.8333,12,Good
Brazil,Colatina,45,Good,1,Good,14,Good,2,Good,45,Satisfactory,-19.5389,-40.6308,12,Good
Brazil,Capela,35,Good,0,Good,13,Good,2,Good,35,Satisfactory,-10.5028,-37.0528,21,Good
Brazil,Campos Gerais,51,Moderate,1,Good,5,Good,4,Good,51,Satisfactory,-21.235,-45.7589,57,Satisfactory
Brazil,Posse,16,Good,0,Good,9,Good,1,Good,16,Good,-14.0928,-46.3689,3,Good
Brazil,Capanema,22,Good,0,Good,19,Good,0,Good,22,Good,-1.1958,-47.1808,3,Good
Brazil,Campo Maior,27,Good,1,Good,10,Good,1,Good,27,Good,-4.8278,-42.1689,3,Good
Brazil,Carutapera,23,Good,0,Good,20,Good,0,Good,23,Good,-1.195,-46.02,12,Good
Brazil,Capela,35,Good,0,Good,13,Good,2,Good,35,Satisfactory,-9.4075,-36.0736,12,Good
Brazil,Cajazeiras,23,Good,0,Good,14,Good,1,Good,23,Good,-6.89,-38.5619,21,Good
Brazil,Curvelo,42,Good,1,Good,2,Good,4,Good,42,Satisfactory,-18.7558,-44.4308,12,Good
Brazil,Gameleira,38,Good,0,Good,16,Good,3,Good,38,Satisfactory,-8.5844,-35.3867,3,Good
Brazil,Amontada,39,Good,0,Good,20,Good,0,Good,39,Satisfactory,-3.3608,-39.8308,12,Good
Brazil,Cachoeirinha,35,Good,0,Good,11,Good,1,Good,35,Satisfactory,-8.4858,-36.2328,60,Satisfactory
Brazil,Brotas,49,Good,1,Good,5,Good,3,Good,49,Satisfactory,-22.2839,-48.1269,12,Good
Brazil,Aracati,22,Good,0,Good,21,Good,0,Good,22,Good,-4.5619,-37.77,71,Satisfactory
Brazil,Rolante,55,Moderate,1,Good,14,Good,2,Good,55,Satisfactory,-29.6508,-50.5758,40,Good
Brazil,Caraguatatuba,31,Good,1,Good,24,Good,0,Good,31,Satisfactory,-23.62,-45.4128,51,Satisfactory
Brazil,Barra Velha,76,Moderate,3,Good,3,Good,7,Good,76,Moderate,-26.6319,-48.685,17,Good
Brazil,Santa Maria,24,Good,1,Good,13,Good,0,Good,24,Good,17.3719,120.4814,3,Good
Brazil,Natal,24,Good,0,Good,23,Good,0,Good,24,Good,-6.9838,-60.2699,103,Moderate
Brazil,Diadema,137,Unhealthy for Sensitive Groups,3,Good,4,Good,15,Good,137,Very Poor,-23.6861,-46.6106,12,Good
Brazil,Ponte Nova,44,Good,1,Good,12,Good,2,Good,44,Satisfactory,-20.4158,-42.9089,12,Good
Brazil,Conde,19,Good,0,Good,19,Good,0,Good,11,Good,-11.8139,-37.6108,12,Good
Brazil,Guanambi,13,Good,0,Good,11,Good,0,Good,13,Good,-14.2228,-42.7808,59,Satisfactory
Brazil,Tapejara,18,Good,0,Good,18,Good,0,Good,14,Good,-23.7328,-52.8728,59,Satisfactory
Brazil,Nova Londrina,14,Good,1,Good,9,Good,0,Good,14,Good,-22.7658,-52.985,12,Good
Brazil,Taiobeiras,19,Good,0,Good,7,Good,1,Good,19,Good,-15.8078,-42.2328,71,Satisfactory
Brazil,Cachoeirinha,35,Good,0,Good,11,Good,1,Good,35,Satisfactory,-29.9508,-51.0939,3,Good
Brazil,Portel,62,Moderate,1,Good,5,Good,0,Good,62,Moderate,-1.9358,-50.8208,45,Good
Brazil,Itatiba,127,Unhealthy for Sensitive Groups,3,Good,5,Good,11,Good,127,Very Poor,-23.0058,-46.8389,12,Good
Brazil,Gandu,21,Good,0,Good,12,Good,1,Good,21,Good,-13.7439,-39.4869,12,Good
Brazil,Corrente,54,Moderate,1,Good,12,Good,1,Good,54,Satisfactory,-10.4428,-45.1619,3,Good
Brazil,Caucaia,31,Good,0,Good,24,Good,0,Good,31,Satisfactory,-3.7167,-38.65,43,Good
Brazil,Campos Belos,20,Good,0,Good,20,Good,0,Good,18,Good,-13.0369,-46.7719,3,Good
Brazil,Cocal,35,Good,1,Good,6,Good,2,Good,35,Satisfactory,-3.4708,-41.555,12,Good
Brazil,Batalha,22,Good,0,Good,22,Good,0,Good,14,Good,-9.6778,-37.1247,51,Satisfactory
Brazil,Nova Odessa,64,Moderate,2,Good,4,Good,5,Good,64,Moderate,-22.7797,-47.2962,33,Good
Brazil,Itapeva,16,Good,0,Good,16,Good,0,Good,14,Good,-22.7678,-46.2208,59,Satisfactory
Brazil,Presidente Prudente,32,Good,1,Good,14,Good,1,Good,32,Satisfactory,-22.1256,-51.3889,57,Satisfactory
Brazil,Franca,52,Moderate,1,Good,2,Good,2,Good,52,Satisfactory,-20.5389,-47.4008,57,Satisfactory
Brazil,Pedregulho,42,Good,1,Good,7,Good,2,Good,42,Satisfactory,-20.2569,-47.4767,45,Good
Brazil,Louveira,122,Unhealthy for Sensitive Groups,3,Good,5,Good,11,Good,122,Very Poor,-23.0864,-46.9506,3,Good
Brazil,Paraipaba,42,Good,0,Good,21,Good,1,Good,42,Satisfactory,-3.4389,-39.1478,59,Satisfactory
Brazil,Osvaldo Cruz,41,Good,1,Good,13,Good,1,Good,41,Satisfactory,-21.7967,-50.8786,55,Satisfactory
Brazil,Piracaia,102,Unhealthy for Sensitive Groups,3,Good,7,Good,8,Good,102,Poor,-23.0539,-46.3581,12,Good
Brazil,Pacajus,25,Good,0,Good,19,Good,1,Good,25,Good,-4.1728,-38.4608,12,Good
Brazil,Ipojuca,39,Good,0,Good,13,Good,4,Good,39,Satisfactory,-8.4,-35.0625,21,Good
Brazil,Formiga,44,Good,1,Good,6,Good,3,Good,44,Satisfactory,-20.4639,-45.4258,12,Good
Brazil,Capim Grosso,25,Good,0,Good,13,Good,0,Good,25,Good,-11.3808,-40.0128,53,Satisfactory
Brazil,Fartura,32,Good,1,Good,13,Good,1,Good,32,Satisfactory,-23.3883,-49.51,12,Good
Brazil,Caruaru,38,Good,0,Good,13,Good,2,Good,38,Satisfactory,-8.2828,-35.9758,51,Satisfactory
Brazil,Castilho,35,Good,1,Good,11,Good,0,Good,35,Satisfactory,-20.8722,-51.4875,12,Good
Brazil,Ouricuri,21,Good,0,Good,14,Good,0,Good,21,Good,-7.8828,-40.0819,5,Good
Brazil,Salvador,30,Good,0,Good,16,Good,1,Good,30,Satisfactory,20.2094,-75.2231,107,Moderate
Brazil,Juquitiba,157,Unhealthy,5,Good,2,Good,18,Good,157,Very Poor,-23.9319,-47.0686,12,Good
Brazil,Salvador,30,Good,0,Good,16,Good,1,Good,30,Satisfactory,-12.9747,-38.4767,71,Satisfactory
Brazil,Canela,51,Moderate,1,Good,14,Good,3,Good,51,Satisfactory,-29.3658,-50.8158,59,Satisfactory
Brazil,Frederico Westphalen,43,Good,1,Good,3,Good,4,Good,43,Satisfactory,-27.3589,-53.3939,59,Satisfactory
Brazil,Seara,39,Good,1,Good,17,Good,0,Good,39,Satisfactory,-27.1489,-52.3108,12,Good
Brazil,Rio Piracicaba,92,Moderate,3,Good,0,Good,7,Good,92,Poor,-19.9289,-43.1739,12,Good
Brazil,Quixeramobim,23,Good,0,Good,11,Good,1,Good,23,Good,-5.1989,-39.2928,12,Good
Brazil,Valente,30,Good,0,Good,11,Good,1,Good,30,Satisfactory,-11.4119,-39.4619,51,Satisfactory
Brazil,Vera Cruz,25,Good,0,Good,20,Good,0,Good,25,Good,-22.22,-49.8189,3,Good
Brazil,Viana,22,Good,0,Good,12,Good,0,Good,22,Good,-3.22,-45.0039,12,Good
Brazil,Vera Cruz,25,Good,0,Good,20,Good,0,Good,25,Good,-12.96,-38.6089,12,Good
Brazil,Iguatu,31,Good,0,Good,10,Good,2,Good,31,Satisfactory,-6.3589,-39.2989,12,Good
Brazil,Ruy Barbosa,18,Good,0,Good,8,Good,0,Good,18,Good,-12.2839,-40.4939,12,Good
Brazil,Monte Azul,14,Good,0,Good,14,Good,0,Good,9,Good,-15.1553,-42.8589,54,Satisfactory
Brazil,Itajobi,54,Moderate,1,Good,6,Good,1,Good,54,Satisfactory,-21.3178,-49.0539,12,Good
Brazil,Jaguaribe,33,Good,0,Good,18,Good,0,Good,33,Satisfactory,-5.8908,-38.6219,21,Good
Brazil,Caxambu,49,Good,1,Good,11,Good,3,Good,49,Satisfactory,-21.9769,-44.9328,54,Satisfactory
Brazil,Monte Azul Paulista,38,Good,1,Good,11,Good,1,Good,38,Satisfactory,-20.9072,-48.6414,54,Satisfactory
Brazil,Colina,37,Good,1,Good,11,Good,1,Good,37,Satisfactory,-20.7136,-48.5411,12,Good
Brazil,Cataguases,57,Moderate,2,Good,6,Good,4,Good,57,Satisfactory,-21.3889,-42.6969,71,Satisfactory
Brazil,Boituva,86,Moderate,2,Good,11,Good,4,Good,86,Moderate,-23.2833,-47.6722,45,Good
Brazil,Itupeva,26,Good,0,Good,25,Good,0,Good,26,Good,-23.1531,-47.0578,21,Good
Brazil,Itatiaia,56,Moderate,1,Good,10,Good,3,Good,56,Satisfactory,-22.4914,-44.5592,12,Good
Brazil,Bom Jardim,52,Moderate,1,Good,13,Good,3,Good,52,Satisfactory,-7.7958,-35.5869,12,Good
Brazil,Bom Jardim,52,Moderate,1,Good,13,Good,3,Good,52,Satisfactory,-22.1519,-42.4189,12,Good
Brazil,Jacobina,21,Good,0,Good,14,Good,0,Good,21,Good,-11.1808,-40.5178,51,Satisfactory
Brazil,Bandeirantes,24,Good,1,Good,13,Good,0,Good,24,Good,-23.11,-50.3678,12,Good
Brazil,Condado,38,Good,0,Good,17,Good,2,Good,38,Satisfactory,-7.5858,-35.1058,51,Satisfactory
Brazil,Araquari,75,Moderate,3,Good,1,Good,8,Good,75,Moderate,-26.37,-48.7219,3,Good
Brazil,Ipueiras,22,Good,0,Good,16,Good,0,Good,22,Good,-4.5419,-40.7189,71,Satisfactory
Brazil,Lagoa Vermelha,15,Good,0,Good,15,Good,0,Good,12,Good,-28.2089,-51.5258,71,Satisfactory
Brazil,Itapeva,16,Good,0,Good,16,Good,0,Good,14,Good,-23.9819,-48.8758,67,Satisfactory
Brazil,Atibaia,150,Unhealthy for Sensitive Groups,4,Good,5,Good,12,Good,150,Very Poor,-23.1172,-46.5506,51,Satisfactory
Brazil,Tijucas,52,Moderate,1,Good,14,Good,4,Good,52,Satisfactory,-27.2408,-48.6339,43,Good
Brazil,Caldas Novas,31,Good,1,Good,10,Good,1,Good,31,Satisfactory,-17.7439,-48.6258,59,Satisfactory
Brazil,Santa Maria,24,Good,1,Good,13,Good,0,Good,24,Good,-24.9389,-51.8628,12,Good
Brazil,Lagarto,26,Good,0,Good,15,Good,1,Good,26,Good,-10.9169,-37.65,43,Good
Brazil,Alvorada,41,Good,1,Good,6,Good,1,Good,41,Satisfactory,-12.48,-49.125,71,Satisfactory
Brazil,Alvorada,41,Good,1,Good,6,Good,1,Good,41,Satisfactory,-29.9897,-51.0833,57,Satisfactory
Brazil,Viradouro,55,Moderate,1,Good,23,Good,0,Good,55,Satisfactory,-20.8728,-48.2969,12,Good
Brazil,Macau,19,Good,0,Good,19,Good,0,Good,15,Good,-5.115,-36.6339,21,Good
Brazil,Macau,19,Good,0,Good,19,Good,0,Good,15,Good,22.2006,113.5461,12,Good
Brazil,Ibotirama,19,Good,0,Good,11,Good,1,Good,19,Good,-12.185,-43.2208,59,Satisfactory
Brazil,Cianorte,34,Good,1,Good,9,Good,1,Good,34,Satisfactory,-23.6628,-52.605,12,Good
Brazil,Acopiara,35,Good,1,Good,12,Good,2,Good,35,Satisfactory,-6.095,-39.4528,39,Good
Brazil,Picos,16,Good,0,Good,12,Good,0,Good,16,Good,15.083,-23.632,21,Good
Brazil,Carmo,62,Moderate,1,Good,10,Good,4,Good,62,Moderate,-21.9339,-42.6089,12,Good
Brazil,Castro Alves,23,Good,0,Good,13,Good,1,Good,23,Good,-12.7658,-39.4278,21,Good
Brazil,Congonhas,65,Moderate,2,Good,3,Good,7,Good,65,Moderate,-20.5,-43.8578,12,Good
Brazil,Picos,16,Good,0,Good,12,Good,0,Good,16,Good,-7.0769,-41.4669,51,Satisfactory
Brazil,Ibaiti,17,Good,1,Good,13,Good,0,Good,17,Good,-23.8489,-50.1878,71,Satisfactory
Brazil,Blumenau,40,Good,1,Good,6,Good,4,Good,40,Satisfactory,-26.9333,-49.05,51,Satisfactory
Brazil,Diamantino,75,Moderate,3,Good,9,Good,1,Good,75,Moderate,-14.4089,-56.4458,51,Satisfactory
Brazil,Jaciara,55,Moderate,1,Good,7,Good,0,Good,55,Satisfactory,-15.965,-54.9678,71,Satisfactory
Brazil,Charqueadas,49,Good,1,Good,10,Good,3,Good,49,Satisfactory,-29.955,-51.625,279,Poor
Brazil,Colina,37,Good,1,Good,11,Good,1,Good,37,Satisfactory,-33.2017,-70.6703,12,Good
Brazil,Viana,22,Good,0,Good,12,Good,0,Good,22,Good,-20.39,-40.4958,51,Satisfactory
Brazil,Cajati,33,Good,1,Good,10,Good,1,Good,33,Satisfactory,-24.7361,-48.1228,12,Good
Brazil,Tabira,21,Good,0,Good,21,Good,0,Good,14,Good,-7.5908,-37.5394,33,Good
Brazil,Serra Negra,94,Moderate,3,Good,3,Good,8,Good,94,Poor,-22.6119,-46.7008,57,Satisfactory
Brazil,Cajuru,50,Good,1,Good,21,Good,0,Good,50,Satisfactory,-21.2753,-47.3042,12,Good
Brazil,Areia Branca,21,Good,0,Good,21,Good,0,Good,19,Good,-10.7578,-37.315,51,Satisfactory
Brazil,Porto Feliz,85,Moderate,2,Good,9,Good,6,Good,85,Moderate,-23.215,-47.5239,51,Satisfactory
Brazil,Sorocaba,73,Moderate,1,Good,31,Good,1,Good,73,Moderate,-23.5017,-47.4581,12,Good
Brazil,Joaquim Gomes,26,Good,0,Good,18,Good,1,Good,26,Good,-9.1328,-35.7478,59,Satisfactory
Brazil,Aquidauana,16,Good,1,Good,12,Good,0,Good,16,Good,-20.4708,-55.7869,57,Satisfactory
Brazil,Arinos,40,Good,1,Good,2,Good,2,Good,40,Satisfactory,-15.9169,-46.1058,12,Good
Brazil,Itaquitinga,50,Good,1,Good,15,Good,3,Good,50,Satisfactory,-7.6678,-35.1019,12,Good
Brazil,Rio Casca,45,Good,1,Good,12,Good,2,Good,45,Satisfactory,-20.2258,-42.6508,43,Good
Brazil,Inhumas,54,Moderate,1,Good,10,Good,3,Good,54,Satisfactory,-16.3578,-49.4958,21,Good
Brazil,Baependi,43,Good,1,Good,11,Good,2,Good,43,Satisfactory,-21.9589,-44.89,3,Good
Brazil,Marco,25,Good,0,Good,13,Good,1,Good,25,Good,-3.1239,-40.1469,12,Good
Brazil,Paulista,33,Good,0,Good,21,Good,1,Good,33,Satisfactory,-7.9408,-34.8728,51,Satisfactory
Brazil,Jaguaruna,85,Moderate,2,Good,24,Good,2,Good,85,Moderate,-28.615,-49.0258,9,Good
Brazil,Fonte Boa,19,Good,1,Good,3,Good,0,Good,19,Good,-2.5139,-66.0917,12,Good
Brazil,Apodi,25,Good,0,Good,16,Good,0,Good,25,Good,-5.6639,-37.7989,24,Good
Brazil,Pindamonhangaba,57,Moderate,2,Good,10,Good,4,Good,57,Satisfactory,-22.9239,-45.4617,43,Good
Brazil,Senador Canedo,54,Moderate,1,Good,6,Good,4,Good,54,Satisfactory,-16.7594,-49.0864,57,Satisfactory
Brazil,Terra Roxa,19,Good,1,Good,8,Good,1,Good,19,Good,-20.7889,-48.33,12,Good
Brazil,Araripe,24,Good,0,Good,14,Good,0,Good,24,Good,-7.2128,-40.0458,51,Satisfactory
Brazil,Tibagi,18,Good,0,Good,18,Good,0,Good,14,Good,-24.5089,-50.4139,59,Satisfactory
Brazil,Palotina,40,Good,1,Good,11,Good,1,Good,40,Satisfactory,-24.2839,-53.84,12,Good
Brazil,Delmiro Gouveia,25,Good,0,Good,9,Good,1,Good,25,Good,-9.3858,-37.9958,12,Good
Brazil,Arapiraca,32,Good,0,Good,12,Good,2,Good,32,Satisfactory,-9.7519,-36.6608,12,Good
Brazil,Itabaiana,51,Moderate,1,Good,14,Good,4,Good,51,Satisfactory,-10.685,-37.425,3,Good
Brazil,Ipu,46,Good,1,Good,8,Good,2,Good,46,Satisfactory,-4.3257,-40.7103,12,Good
Brazil,Itabaiana,51,Moderate,1,Good,14,Good,4,Good,51,Satisfactory,-7.3289,-35.3328,21,Good
Brazil,Matozinhos,155,Unhealthy,6,Good,0,Good,6,Good,155,Very Poor,-19.5578,-44.0808,12,Good
Brazil,Ipubi,14,Good,0,Good,14,Good,0,Good,14,Good,-7.6519,-40.1489,43,Good
Brazil,Rubiataba,42,Good,1,Good,7,Good,1,Good,42,Satisfactory,-15.1639,-49.8028,12,Good
Brazil,Areia Branca,21,Good,0,Good,21,Good,0,Good,19,Good,-4.9558,-37.1369,12,Good
Brazil,Rio Largo,27,Good,0,Good,18,Good,1,Good,27,Good,-9.4778,-35.8528,12,Good
Brazil,Olindina,25,Good,0,Good,6,Good,1,Good,25,Good,-11.3669,-38.3328,12,Good
Brazil,Paulista,33,Good,0,Good,21,Good,1,Good,33,Satisfactory,-6.5939,-37.6239,75,Satisfactory
Brazil,Osasco,132,Unhealthy for Sensitive Groups,2,Good,31,Good,6,Good,132,Very Poor,-23.5328,-46.7919,53,Satisfactory
Brazil,Bauru,45,Good,1,Good,11,Good,2,Good,45,Satisfactory,-22.315,-49.0608,43,Good
Brazil,Balsas,50,Good,1,Good,10,Good,0,Good,50,Satisfactory,-7.5328,-46.0358,3,Good
Brazil,Vigia,29,Good,1,Good,14,Good,1,Good,29,Good,-0.8578,-48.1419,13,Good
Brazil,Pinheiro Machado,26,Good,0,Good,16,Good,1,Good,26,Good,-31.5778,-53.3808,38,Good
Brazil,Botelhos,47,Good,1,Good,9,Good,2,Good,47,Satisfactory,-21.6424,-46.3937,17,Good
Brazil,Santa Maria,24,Good,1,Good,13,Good,0,Good,24,Good,17.4667,121.75,59,Satisfactory
Brazil,Tapejara,18,Good,0,Good,18,Good,0,Good,14,Good,-28.0678,-52.0139,12,Good
Brazil,Mantena,29,Good,1,Good,8,Good,2,Good,29,Good,-18.7819,-40.98,71,Satisfactory
Brazil,Lajeado,83,Moderate,2,Good,11,Good,4,Good,83,Moderate,-29.4669,-51.9608,3,Good
Brazil,Manacapuru,26,Good,1,Good,5,Good,0,Good,26,Good,-3.3,-60.6206,57,Satisfactory
Brazil,Luz,40,Good,1,Good,6,Good,2,Good,40,Satisfactory,-19.8008,-45.6858,12,Good
Brazil,Belo Oriente,63,Moderate,2,Good,0,Good,5,Good,63,Moderate,-19.22,-42.4839,21,Good
Brazil,Saquarema,83,Moderate,2,Good,11,Good,7,Good,83,Moderate,-22.92,-42.51,9,Good
Brazil,Batalha,22,Good,0,Good,22,Good,0,Good,14,Good,39.65,-8.8,12,Good
Brazil,Arcoverde,28,Good,0,Good,18,Good,0,Good,28,Good,-8.4189,-37.0539,59,Satisfactory
Brazil,Palmas,163,Unhealthy,6,Good,4,Good,3,Good,163,Very Poor,-26.4839,-51.9908,21,Good
Brazil,Nova Friburgo,80,Moderate,2,Good,13,Good,6,Good,80,Moderate,-22.2819,-42.5311,33,Good
Brazil,Amparo,53,Moderate,1,Good,6,Good,4,Good,53,Satisfactory,-22.7031,-46.765,3,Good
Brazil,Arari,49,Good,1,Good,7,Good,0,Good,49,Satisfactory,-3.4539,-44.78,12,Good
Brazil,Maraial,36,Good,0,Good,16,Good,2,Good,36,Satisfactory,-8.8028,-35.8289,12,Good
Brazil,Amaraji,30,Good,0,Good,17,Good,2,Good,30,Satisfactory,-8.3758,-35.4522,35,Good
Brazil,Guararema,159,Unhealthy,6,Good,1,Good,16,Good,159,Very Poor,-23.415,-46.035,12,Good
Brazil,Ipanema,29,Good,0,Good,21,Good,0,Good,29,Good,-19.8008,-41.7128,12,Good
Brazil,Novo Oriente,20,Good,0,Good,20,Good,0,Good,18,Good,-5.5339,-40.7739,12,Good
Brazil,Itaberaba,16,Good,0,Good,11,Good,0,Good,16,Good,-12.5278,-40.3069,9,Good
Brazil,Silvania,61,Moderate,1,Good,3,Good,4,Good,61,Moderate,4.4033,-74.3881,38,Good
Brazil,Indaiatuba,75,Moderate,1,Good,32,Good,1,Good,75,Moderate,-23.0903,-47.2181,12,Good
Brazil,Baixo Guandu,52,Moderate,1,Good,8,Good,3,Good,52,Satisfactory,-19.5189,-41.0158,43,Good
Brazil,Palmas,163,Unhealthy,6,Good,4,Good,3,Good,163,Very Poor,-10.1844,-48.3336,39,Good
Brazil,Cacoal,42,Good,1,Good,6,Good,0,Good,42,Satisfactory,-11.4386,-61.4472,21,Good
Brazil,Barbacena,59,Moderate,2,Good,4,Good,5,Good,59,Satisfactory,-21.2167,-43.7667,38,Good
Brazil,Andradas,53,Moderate,1,Good,7,Good,4,Good,53,Satisfactory,-22.0678,-46.5689,3,Good
Brazil,Paragominas,36,Good,1,Good,2,Good,0,Good,36,Satisfactory,-2.9958,-47.3528,3,Good
Brazil,Mocajuba,38,Good,1,Good,3,Good,0,Good,38,Satisfactory,-2.5839,-49.5069,12,Good
Brazil,Novo Cruzeiro,23,Good,0,Good,12,Good,0,Good,23,Good,-17.4678,-41.875,51,Satisfactory
Brazil,Alta Floresta,21,Good,1,Good,13,Good,0,Good,21,Good,-9.8758,-56.0858,12,Good
Brazil,Maribondo,24,Good,0,Good,24,Good,0,Good,16,Good,-9.5769,-36.305,75,Satisfactory
Brazil,Itapevi,131,Unhealthy for Sensitive Groups,3,Good,24,Good,7,Good,131,Very Poor,-23.5489,-46.9342,54,Satisfactory
Brazil,Borborema,20,Good,1,Good,9,Good,1,Good,20,Good,-21.62,-49.0739,4,Good
Brazil,Boa Vista,15,Good,0,Good,10,Good,0,Good,15,Good,2.8194,-60.6714,12,Good
Brazil,Brejo Santo,30,Good,0,Good,9,Good,2,Good,30,Satisfactory,-7.4928,-38.985,59,Satisfactory
Brazil,Sarandi,45,Good,1,Good,5,Good,3,Good,45,Satisfactory,-27.9439,-52.9228,12,Good
Brazil,Entre Rios,21,Good,0,Good,15,Good,1,Good,21,Good,-11.9419,-38.0839,12,Good
Brazil,Paulo Afonso,23,Good,0,Good,11,Good,1,Good,23,Good,-9.4,-38.225,43,Good
Brazil,Pontalina,51,Moderate,1,Good,1,Good,4,Good,51,Satisfactory,-17.5258,-49.4489,12,Good
Brazil,Caratinga,40,Good,1,Good,8,Good,2,Good,40,Satisfactory,-19.79,-42.1389,59,Satisfactory
Brazil,Teodoro Sampaio,46,Good,1,Good,9,Good,1,Good,46,Satisfactory,-22.5328,-52.1678,13,Good
Brazil,Pilar,39,Good,1,Good,15,Good,2,Good,39,Satisfactory,-26.87,-58.3,51,Satisfactory
Brazil,Americana,57,Moderate,2,Good,5,Good,4,Good,57,Satisfactory,-22.7386,-47.3311,38,Good
Brazil,Artur Nogueira,68,Moderate,2,Good,3,Good,5,Good,68,Moderate,-22.5731,-47.1725,13,Good
Brazil,Pilar,39,Good,1,Good,15,Good,2,Good,39,Satisfactory,-34.4588,-58.9142,12,Good
Brazil,Oeiras,20,Good,0,Good,20,Good,0,Good,18,Good,-7.025,-42.1308,33,Good
Brazil,Pedreira,56,Moderate,1,Good,6,Good,4,Good,56,Satisfactory,-22.7419,-46.9014,7,Good
Brazil,Pilar,39,Good,1,Good,15,Good,2,Good,39,Satisfactory,12.9244,123.6756,3,Good
Brazil,Brejo,45,Good,1,Good,9,Good,1,Good,45,Satisfactory,-3.6839,-42.75,17,Good
Brazil,Mariana,59,Moderate,2,Good,4,Good,5,Good,59,Satisfactory,14.6194,121.0347,21,Good
Brazil,Barra Mansa,113,Unhealthy for Sensitive Groups,3,Good,4,Good,8,Good,113,Poor,-22.5439,-44.1708,3,Good
Brazil,Barroquinha,25,Good,0,Good,13,Good,0,Good,25,Good,-3.0189,-41.1369,3,Good
Brazil,Parnarama,26,Good,0,Good,13,Good,0,Good,26,Good,-5.6819,-43.0928,57,Satisfactory
Brazil,Mococa,60,Moderate,1,Good,5,Good,5,Good,60,Moderate,-21.4678,-47.0047,12,Good
Brazil,Ipaba,52,Moderate,1,Good,7,Good,3,Good,52,Satisfactory,-19.4139,-42.4189,71,Satisfactory
Brazil,Palmeira,29,Good,0,Good,15,Good,0,Good,29,Good,-25.4289,-50.0058,3,Good
Brazil,Tuntum,40,Good,1,Good,5,Good,1,Good,40,Satisfactory,-5.2578,-44.6489,59,Satisfactory
Brazil,Pato Branco,17,Good,1,Good,17,Good,0,Good,13,Good,-26.2289,-52.6708,12,Good
Brazil,Remanso,28,Good,0,Good,20,Good,0,Good,28,Good,-9.6219,-42.0808,71,Satisfactory
Brazil,Rio Negro,24,Good,1,Good,14,Good,0,Good,24,Good,-26.1,-49.79,60,Satisfactory
Brazil,Bariri,66,Moderate,1,Good,24,Good,1,Good,66,Moderate,-22.0744,-48.7403,54,Satisfactory
Brazil,Pindorama,28,Good,1,Good,12,Good,1,Good,28,Good,-21.1858,-48.9069,12,Good
Brazil,Mamanguape,25,Good,0,Good,25,Good,0,Good,23,Good,-6.8389,-35.1258,21,Good
Brazil,Cunha,38,Good,1,Good,23,Good,0,Good,38,Satisfactory,-23.0744,-44.9597,21,Good
Brazil,Piquete,52,Moderate,1,Good,20,Good,0,Good,52,Satisfactory,-22.6136,-45.1761,12,Good
Brazil,Carira,21,Good,0,Good,21,Good,0,Good,13,Good,-10.3581,-37.7008,43,Good
Brazil,Nova Granada,37,Good,1,Good,9,Good,2,Good,37,Satisfactory,-20.5339,-49.3139,13,Good
Brazil,Chuy,16,Good,1,Good,7,Good,1,Good,16,Good,-33.6964,-53.46,12,Good
Brazil,Barro,34,Good,1,Good,8,Good,2,Good,34,Satisfactory,-7.1769,-38.7819,51,Satisfactory
Brazil,Pereira Barreto,55,Moderate,1,Good,24,Good,0,Good,55,Satisfactory,-20.6383,-51.1092,3,Good
Brazil,Itupiranga,37,Good,1,Good,5,Good,0,Good,37,Satisfactory,-5.135,-49.3269,21,Good
Brazil,Iguaba Grande,61,Moderate,2,Good,33,Good,3,Good,61,Moderate,-22.8389,-42.2289,12,Good
Brazil,Parnamirim,24,Good,0,Good,20,Good,1,Good,24,Good,-8.0908,-39.5778,12,Good
Brazil,Parnamirim,24,Good,0,Good,20,Good,1,Good,24,Good,-5.9167,-35.25,21,Good
Brazil,Oliveira,31,Good,1,Good,23,Good,0,Good,31,Satisfactory,-20.6958,-44.8269,17,Good
Brazil,Pilar,39,Good,1,Good,15,Good,2,Good,39,Satisfactory,17.4168,120.5954,12,Good
Brazil,Itabira,52,Moderate,1,Good,7,Good,3,Good,52,Satisfactory,-19.6189,-43.2269,71,Satisfactory
Brazil,Ivoti,55,Moderate,1,Good,13,Good,4,Good,55,Satisfactory,-29.5908,-51.1608,12,Good
Brazil,Itaperuna,57,Moderate,2,Good,0,Good,5,Good,57,Satisfactory,-21.205,-41.8878,57,Satisfactory
Brazil,Pitangueiras,149,Unhealthy for Sensitive Groups,3,Good,4,Good,7,Good,149,Very Poor,-21.0094,-48.2217,12,Good
Brazil,Pedra,25,Good,0,Good,11,Good,1,Good,25,Good,-8.5006,-36.9456,71,Satisfactory
Brazil,Indaial,73,Moderate,2,Good,2,Good,8,Good,73,Moderate,-26.8978,-49.2319,16,Good
Brazil,Resende,62,Moderate,1,Good,8,Good,4,Good,62,Moderate,41.106,-7.964,21,Good
Brazil,Resende,62,Moderate,1,Good,8,Good,4,Good,62,Moderate,-22.4689,-44.4469,12,Good
Brazil,Linhares,37,Good,1,Good,19,Good,1,Good,37,Satisfactory,-19.3894,-40.0678,12,Good
Brazil,Jaguarari,13,Good,0,Good,10,Good,1,Good,13,Good,-10.26,-40.1958,12,Good
Brazil,Itagi,25,Good,0,Good,9,Good,1,Good,25,Good,-14.1628,-40.0058,33,Good
Brazil,Valinhos,89,Moderate,2,Good,23,Good,3,Good,89,Moderate,-22.9706,-46.9958,12,Good
Brazil,Itaitinga,29,Good,0,Good,20,Good,1,Good,29,Good,-3.9689,-38.5278,51,Satisfactory
Brazil,Itu,156,Unhealthy,4,Good,3,Good,11,Good,156,Very Poor,-23.2642,-47.2992,59,Satisfactory
Brazil,Santa Helena,15,Good,0,Good,14,Good,0,Good,15,Good,-24.86,-54.3328,12,Good
Brazil,Senador Pompeu,32,Good,1,Good,11,Good,1,Good,32,Satisfactory,-5.5878,-39.3719,12,Good
Brazil,Jaguaruana,25,Good,0,Good,14,Good,0,Good,25,Good,-4.8339,-37.7808,12,Good
Brazil,Jaguaquara,22,Good,0,Good,9,Good,1,Good,22,Good,-13.5308,-39.9708,21,Good
Brazil,Vespasiano,42,Good,1,Good,21,Good,0,Good,42,Satisfactory,-19.6919,-43.9228,59,Satisfactory
Brazil,Soledade,17,Good,0,Good,11,Good,2,Good,17,Good,-28.8178,-52.51,12,Good
Brazil,Itapissuma,27,Good,0,Good,23,Good,1,Good,27,Good,-7.7764,-34.8919,12,Good
Brazil,Soledade,17,Good,0,Good,11,Good,2,Good,17,Good,-7.0569,-36.3628,7,Good
Brazil,Pilar,39,Good,1,Good,15,Good,2,Good,39,Satisfactory,11.4878,122.9956,17,Good
Brazil,Pilar,39,Good,1,Good,15,Good,2,Good,39,Satisfactory,14.6667,120.5667,12,Good
Brazil,Itarantim,23,Good,1,Good,7,Good,1,Good,23,Good,-15.66,-40.0658,12,Good
Brazil,Pilar,39,Good,1,Good,15,Good,2,Good,39,Satisfactory,-9.5972,-35.9567,43,Good
Brazil,Itumbiara,31,Good,1,Good,13,Good,0,Good,31,Satisfactory,-18.4167,-49.2167,12,Good
Brazil,Saubara,26,Good,0,Good,16,Good,2,Good,26,Good,-12.7378,-38.7689,59,Satisfactory
Brazil,Marau,20,Good,0,Good,20,Good,0,Good,13,Good,-28.4489,-52.2,13,Good
Brazil,Pilar,39,Good,1,Good,15,Good,2,Good,39,Satisfactory,-31.6833,-63.9,59,Satisfactory
Brazil,Coxim,53,Moderate,1,Good,6,Good,1,Good,53,Satisfactory,-18.5069,-54.76,7,Good
Brazil,Pilar,39,Good,1,Good,15,Good,2,Good,39,Satisfactory,10.807,124.565,59,Satisfactory
Brazil,Dourados,13,Good,1,Good,13,Good,0,Good,12,Good,-22.2208,-54.8058,21,Good
Brazil,Juatuba,152,Unhealthy,6,Good,0,Good,7,Good,152,Very Poor,-19.9519,-44.3428,7,Good
Brazil,Pilar,39,Good,1,Good,15,Good,2,Good,39,Satisfactory,9.8639,126.1008,3,Good
Brazil,Borba,40,Good,1,Good,2,Good,0,Good,40,Satisfactory,-4.3878,-59.5939,12,Good
Brazil,Itabuna,50,Good,1,Good,9,Good,3,Good,50,Satisfactory,-14.7858,-39.28,7,Good
Brazil,Pilar,39,Good,1,Good,15,Good,2,Good,39,Satisfactory,9.8333,124.3333,3,Good
Brazil,Monte Alegre,33,Good,1,Good,4,Good,0,Good,33,Satisfactory,-2.0078,-54.0689,12,Good
Brazil,Monte Alegre,33,Good,1,Good,4,Good,0,Good,33,Satisfactory,-6.0678,-35.3319,12,Good
Brazil,Pombos,40,Good,1,Good,9,Good,4,Good,40,Satisfactory,-8.1492,-35.4011,58,Satisfactory
Brazil,Itirapina,61,Moderate,1,Good,24,Good,0,Good,61,Moderate,-22.2528,-47.8228,71,Satisfactory
Brazil,Campo Alegre,25,Good,0,Good,16,Good,1,Good,25,Good,-26.1928,-49.2658,12,Good
Brazil,Nova Cruz,35,Good,0,Good,21,Good,1,Good,35,Satisfactory,-6.4778,-35.4339,12,Good
Brazil,Cordeiro,56,Moderate,1,Good,10,Good,4,Good,56,Satisfactory,-22.0289,-42.3608,3,Good
Brazil,Cururupu,52,Moderate,1,Good,22,Good,0,Good,52,Satisfactory,-1.8278,-44.8678,12,Good
Brazil,Correntina,11,Good,0,Good,11,Good,0,Good,3,Good,-13.3428,-44.6369,3,Good
Brazil,Barreirinha,25,Good,0,Good,6,Good,0,Good,25,Good,-2.8025,-57.0686,12,Good
Brazil,Piritiba,23,Good,0,Good,20,Good,0,Good,23,Good,-11.73,-40.555,67,Satisfactory
Brazil,Piracicaba,72,Moderate,1,Good,29,Good,1,Good,72,Moderate,-22.7253,-47.6492,3,Good
Brazil,Pinheiro,31,Good,0,Good,18,Good,0,Good,31,Satisfactory,-2.5208,-45.0828,3,Good
Brazil,Augusto Correa,22,Good,0,Good,19,Good,0,Good,22,Good,-1.0219,-46.645,21,Good
Brazil,Santa Luzia,20,Good,0,Good,16,Good,0,Good,20,Good,-19.77,-43.8506,12,Good
Brazil,Santa Luzia,20,Good,0,Good,16,Good,0,Good,20,Good,-6.8719,-36.9189,12,Good
Brazil,Recife,42,Good,0,Good,23,Good,1,Good,42,Satisfactory,-8.05,-34.9,12,Good
Brazil,Santa Luzia,20,Good,0,Good,16,Good,0,Good,20,Good,-15.4289,-39.3339,57,Satisfactory
Brazil,Batatais,48,Good,1,Good,22,Good,0,Good,48,Satisfactory,-20.8911,-47.585,51,Satisfactory
Brazil,Jacupiranga,21,Good,0,Good,20,Good,0,Good,21,Good,-24.6925,-48.0022,21,Good
Brazil,Itanhandu,42,Good,1,Good,20,Good,0,Good,42,Satisfactory,-22.2958,-44.935,21,Good
Brazil,Miguel Pereira,154,Unhealthy,5,Good,10,Good,18,Good,154,Very Poor,-22.4539,-43.4689,57,Satisfactory
Brazil,Igarapava,36,Good,1,Good,23,Good,0,Good,36,Satisfactory,-20.0383,-47.7469,60,Satisfactory
Brazil,Ibitinga,65,Moderate,1,Good,24,Good,1,Good,65,Moderate,-21.7578,-48.8289,51,Satisfactory
Brazil,Brusque,45,Good,1,Good,21,Good,1,Good,45,Satisfactory,-27.0949,-48.9148,51,Satisfactory
Brazil,Sombrio,109,Unhealthy for Sensitive Groups,3,Good,13,Good,4,Good,109,Poor,-29.1039,-49.6289,3,Good
Brazil,Presidente Dutra,41,Good,1,Good,5,Good,1,Good,41,Satisfactory,-5.29,-44.49,12,Good
Brazil,Presidente Dutra,41,Good,1,Good,5,Good,1,Good,41,Satisfactory,-11.2958,-41.9869,57,Satisfactory
Brazil,Paracatu,26,Good,1,Good,8,Good,1,Good,26,Good,-17.2217,-46.875,12,Good
Brazil,Agrestina,22,Good,0,Good,17,Good,1,Good,22,Good,-8.45,-35.95,12,Good
Brazil,Miracema,30,Good,0,Good,24,Good,0,Good,30,Satisfactory,-21.4119,-42.1969,71,Satisfactory
Brazil,Novo Hamburgo,91,Moderate,2,Good,6,Good,10,Good,91,Poor,-29.6778,-51.1308,12,Good
Brazil,Salgueiro,20,Good,0,Good,20,Good,0,Good,15,Good,-8.0669,-39.1222,45,Good
Brazil,Jarinu,90,Moderate,2,Good,8,Good,10,Good,90,Poor,-23.1014,-46.7283,13,Good
Brazil,Uruguaiana,18,Good,1,Good,4,Good,3,Good,18,Good,-29.755,-57.0878,12,Good
Brazil,Currais Novos,24,Good,0,Good,24,Good,0,Good,19,Good,-6.2608,-36.515,12,Good
Brazil,Juazeiro,22,Good,0,Good,22,Good,0,Good,12,Good,-9.4306,-40.5028,3,Good
Brazil,Coelho Neto,34,Good,0,Good,18,Good,0,Good,34,Satisfactory,-4.2569,-43.0128,12,Good
Brazil,Passira,23,Good,0,Good,23,Good,0,Good,19,Good,-7.995,-35.5808,12,Good
Brazil,Panelas,23,Good,0,Good,23,Good,0,Good,17,Good,-8.6639,-36.0058,12,Good
Brazil,Mundo Novo,23,Good,0,Good,12,Good,1,Good,23,Good,-11.8589,-40.4719,21,Good
Brazil,Pinheiral,154,Unhealthy,5,Good,0,Good,13,Good,154,Very Poor,-22.5128,-44.0008,7,Good
Brazil,Santa Barbara,91,Moderate,3,Good,2,Good,6,Good,91,Poor,10.8231,122.5344,3,Good
Brazil,Santa Helena,15,Good,0,Good,14,Good,0,Good,15,Good,-2.2308,-45.3,12,Good
Brazil,Seabra,21,Good,0,Good,21,Good,0,Good,16,Good,-12.4189,-41.77,12,Good
Brazil,Campo Alegre,25,Good,0,Good,16,Good,1,Good,25,Good,-9.7819,-36.3508,59,Satisfactory
Brazil,Pedro Juan Caballero,18,Good,1,Good,12,Good,0,Good,18,Good,-22.53,-55.75,59,Satisfactory
Brazil,Tupi Paulista,51,Moderate,1,Good,28,Good,0,Good,51,Satisfactory,-21.3808,-51.5708,71,Satisfactory
Brazil,Taquara,48,Good,1,Good,15,Good,3,Good,48,Satisfactory,-29.6508,-50.7808,12,Good
Brazil,Olinda,28,Good,0,Good,19,Good,1,Good,28,Good,-8,-34.8833,39,Good
Brazil,Porto Velho,50,Good,1,Good,2,Good,0,Good,50,Satisfactory,-8.7619,-63.9039,12,Good
Brazil,Terra Boa,30,Good,1,Good,16,Good,0,Good,30,Satisfactory,-12.3919,-38.625,3,Good
Brazil,Parintins,18,Good,0,Good,7,Good,0,Good,18,Good,-2.6278,-56.7358,12,Good
Brazil,Conselheiro Pena,48,Good,1,Good,4,Good,2,Good,48,Satisfactory,-19.1719,-41.4719,12,Good
Brazil,Campo Formoso,16,Good,0,Good,13,Good,0,Good,16,Good,-10.5089,-40.3208,3,Good
Brazil,Penalva,21,Good,0,Good,11,Good,0,Good,21,Good,-3.2939,-45.1739,12,Good
Brazil,Porteirinha,28,Good,1,Good,4,Good,1,Good,28,Good,-15.7428,-43.0278,56,Satisfactory
Brazil,Caieiras,165,Unhealthy,6,Good,1,Good,19,Good,165,Very Poor,-23.3644,-46.7408,21,Good
Brazil,Rio Pomba,56,Moderate,1,Good,9,Good,3,Good,56,Satisfactory,-21.275,-43.1789,12,Good
Brazil,Cabo Frio,50,Good,1,Good,24,Good,2,Good,50,Satisfactory,-22.8789,-42.0189,12,Good
Brazil,Mairi,22,Good,0,Good,13,Good,0,Good,22,Good,-11.7108,-40.1489,59,Satisfactory
Brazil,Cascavel,23,Good,0,Good,13,Good,1,Good,23,Good,-24.9556,-53.4553,75,Satisfactory
Brazil,Barueri,170,Unhealthy,6,Good,1,Good,20,Good,170,Very Poor,-23.5111,-46.8764,3,Good
Brazil,Vargem Grande,41,Good,0,Good,17,Good,0,Good,41,Satisfactory,-3.5428,-43.9158,12,Good
Brazil,Parelhas,35,Good,0,Good,18,Good,1,Good,35,Satisfactory,-6.6878,-36.6578,51,Satisfactory
Brazil,Mairinque,127,Unhealthy for Sensitive Groups,3,Good,6,Good,11,Good,127,Very Poor,-23.5464,-47.1836,12,Good
Brazil,Espinosa,23,Good,0,Good,23,Good,0,Good,18,Good,-14.9081,-42.8103,59,Satisfactory
Brazil,Bela Vista,23,Good,1,Good,10,Good,0,Good,23,Good,-22.1089,-56.5208,59,Satisfactory
Brazil,Erechim,27,Good,0,Good,11,Good,2,Good,27,Good,-27.6339,-52.2739,59,Satisfactory
Brazil,Porecatu,30,Good,1,Good,9,Good,2,Good,30,Satisfactory,-22.7558,-51.3789,71,Satisfactory
Brazil,Canoinhas,29,Good,0,Good,12,Good,1,Good,29,Good,-26.1769,-50.39,59,Satisfactory
Brazil,Dracena,50,Good,1,Good,23,Good,0,Good,50,Satisfactory,-21.4825,-51.5328,43,Good
Brazil,Mirassol,39,Good,1,Good,10,Good,2,Good,39,Satisfactory,-20.8189,-49.5208,71,Satisfactory
Brazil,Taquari,34,Good,1,Good,13,Good,2,Good,34,Satisfactory,-29.8,-51.8597,58,Satisfactory
Brazil,Descalvado,60,Moderate,1,Good,27,Good,0,Good,60,Moderate,-21.9039,-47.6189,59,Satisfactory
Brazil,Bastos,23,Good,1,Good,7,Good,1,Good,23,Good,-21.9167,-50.7333,50,Good
Brazil,Tabatinga,21,Good,1,Good,2,Good,0,Good,21,Good,-21.7169,-48.6878,12,Good
Brazil,Lajedo,29,Good,0,Good,11,Good,1,Good,29,Good,-8.6639,-36.32,8,Good
Brazil,Tabatinga,21,Good,1,Good,2,Good,0,Good,21,Good,-4.2525,-69.9381,24,Good
Brazil,Pouso Alegre,32,Good,1,Good,7,Good,2,Good,32,Satisfactory,-22.2281,-45.9336,59,Satisfactory
Brazil,Capinzal,25,Good,1,Good,11,Good,0,Good,25,Good,-27.3439,-51.6119,51,Satisfactory
Brazil,Capivari,77,Moderate,1,Good,33,Good,1,Good,77,Moderate,-22.995,-47.5078,21,Good
Brazil,Mendes,172,Unhealthy,8,Good,1,Good,17,Good,172,Very Poor,-22.5269,-43.7328,3,Good
Brazil,Pedreiras,53,Moderate,2,Good,1,Good,2,Good,53,Satisfactory,-4.5696,-44.67,12,Good
Brazil,Itambacuri,29,Good,1,Good,5,Good,2,Good,29,Good,-18.0364,-41.683,71,Satisfactory
Brazil,Garibaldi,29,Good,0,Good,19,Good,0,Good,29,Good,-29.2558,-51.5339,38,Good
Brazil,Itapira,82,Moderate,2,Good,4,Good,7,Good,82,Moderate,-22.4361,-46.8217,12,Good
Brazil,Itamaraju,16,Good,0,Good,11,Good,1,Good,16,Good,-17.0389,-39.5308,12,Good
